x	y	ID	NAME	CATE	lat	long
482225	969810	25023336	평택서부문화예술회관	공연장,연극극장	126.92013313192462	36.99016073719403
482225	969805	1267253470	평택서부 문화예술회관 대공연장	공연장,연극극장	126.92013315076696	36.990142715533665
482184	969739	1968862135	평택서부 문화예술회관 소공연장	공연장,연극극장	126.91994917851565	36.98990470552818
525398	970110	21135309	평택남부문예회관	공연장,연극극장	127.11412019666493	36.99121405023388
525460	970044	21159134	평택남부문예회관 소공연장	공연장,연극극장	127.11439842293733	36.990975896458984
525390	970087	21159132	평택남부문예회관 대공연장	공연장,연극극장	127.11408412671699	36.99113118524548
525024	971366	990840159	뉴코아소극장 평택점	공연장,연극극장	127.11244637938631	36.99574268806583
525037	971315	24878892	투엘필름	공연장,연극극장	127.1125045245363	36.99555881212617
532652	970289	18397901	리베아트센터	공연장,연극극장	127.14671556579388	36.991823415280116
573202	975978	8002857	열린문화마당	공연장,연극극장	127.32900566107409	37.01196308439981
633502	971468	846468166	소극장 하다	공연장,연극극장	127.59988521496685	36.99464777338464
664725	972005	496711241	신니면게이트볼장 야외공연장	공연장,연극극장	127.74019347189761	36.995791244736616
690085	966952	1752934941	우륵세계음악집	공연장,연극극장	127.85393455527505	36.97681530306353
701737	970133	27562813	충주세계무술공원 메인무대	공연장,연극극장	127.90641000410565	36.987891256167885
701399	970597	27562824	충주세계무술공원 수련무대	공연장,연극극장	127.90491134275773	36.989575044332256
706500	970553	897796789	(사단)한국향토음악인협회	공연장,연극극장	127.92782615852494	36.98923955820309
559291	982553	12455417	태평무전수관	문화시설	127.26656628466392	37.03581804875096
568998	981447	19418281	안성남사당공연장	공연장,연극극장	127.31019121107327	37.031725674461555
568817	981370	26976584	안성마춤남사당놀이	공연,연극	127.30937638259938	37.03145027092864
568770	981611	1278756084	안성맞춤랜드 숲속공연장	관광지부속시설	127.30916861134972	37.03231944769963
514466	990799	8632953	평택북부문예회관	공연장,연극극장	127.06506332680831	37.06582067631786
514465	990808	1504391727	평택북부문예회관 소공연장	공연장,연극극장	127.06505885684246	37.065853117369294
514472	990804	1246760413	평택북부문예회관 대공연장	공연장,연극극장	127.06509032822437	37.06583868294908
515471	991262	23184054	부락산분수공원 야외공연장	공원시설물	127.06958500886937	37.067486895504686
539047	989269	8384631	산장휴게소 공연장	공연장,연극극장	127.17560757294099	37.06019397700626
579925	989075	17579995	동아방송예술대학교 야외공연장	공연장,연극극장	127.35944402204609	37.059080166786174
600449	988505	8579166	죽산용설공연장	공연장,연극극장	127.45173139416373	37.05671020811009
600506	988538	1657802180	극단서라벌	공연장,연극극장	127.4519884283273	37.056828169787416
594049	990806	17571330	두원공과대학교 노천극장	공연장,연극극장	127.42299659297974	37.065109561342105
647844	1005927	22704592	감곡야외공연장	공연장,연극극장	127.66541019750663	37.118496635305405
517071	1016825	10633378	오산문화예술회관	공연장,연극극장	127.07687451947251	37.15961808206254
517076	1016797	17811251	오산문화예술회관 대공연장	공연장,연극극장	127.07689693335	37.15951714903953
517065	1016808	18315849	오산문화예술회관 소공연장	공연장,연극극장	127.07684743813523	37.15955682769054
516406	1012023	15751347	케이엔에스 엔터테인먼트	공연장,연극극장	127.07386304294948	37.14231245203227
768951	1010467	21451232	제천시문화회관	공연장,연극극장	128.21065826439812	37.13054472209185
768938	1010446	11147336	제천문화회관 대공연장	공연장,연극극장	128.21059855241904	37.13046964734866
769738	1010774	25050910	제천야외음악당	공연장,연극극장	128.2142178260719	37.131614747988564
771145	1015018	33801201	장락생활체육공원 야외공연장	공연장,연극극장	128.22079583525587	37.14684264450347
768118	1012140	38457692	엽연초하우스	게스트하우스	128.20700511670813	37.136611519899546
513834	1022400	414244791	어서오산휴센터	공연장,연극극장	127.0623140921413	37.179720190282595
513615	1026324	960336835	가비양MEG아트홀	공연장,연극극장	127.06133906268015	37.19386363958476
732404	1018335	27486239	리솜포레스트리조트 별똥카페공연장	공연,연극	128.04656289733464	37.160464052337176
768202	1022512	26602048	수변무대	공연장,연극극장	128.20797772658557	37.17398246784861
765110	1023861	17570031	세명대학교 하늘공연장	공연장,연극극장	128.1941306949717	37.178984645926214
496858	1035526	20290634	예술인 마을	공연장,연극극장	126.98583828483548	37.2270445325922
491300	1031447	1298642237	아이누리극장	공연장,연극극장	126.96079471616527	37.2123373769185
493862	1030789	17566421	수원대학교 야외음악당	공연장,연극극장	126.97234086047554	37.2099690715519
507374	1028838	8042035	화성아트홀	공연장,연극극장	127.03322573598754	37.20293583968616
503287	1029728	991510846	화성시 근로자종합복지관 다목적홀	공연장,연극극장	127.01481117752333	37.206147315595885
507115	1032210	1623392308	다람산공원 야외무대	공연장,연극극장	127.03206387686153	37.21508952928005
516655	1028262	13114804	반석아트홀	공연장,연극극장	127.07504194514772	37.20084070870526
516890	1037531	26409403	삼성전자인재개발원 콘서트홀	공연장,연극극장	127.07613434238924	37.23424730599714
516903	1028398	26596442	동탄복합문화센터 야외공연장	공연장,연극극장	127.07615984305237	37.20133016734978
516602	1028211	1234290547	아르코공연연습센터 화성	공연장,연극극장	127.074802963403	37.200657045317094
517907	1032079	27588146	큰재봉공원 야외무대	공연장,연극극장	127.08069768744618	37.21459423035916
517387	1037625	385305607	스팟마트 삼성전자인재개발원 공연장	슈퍼마켓	127.0783749972008	37.234584637816546
525348	1034533	1917600252	드림나무극장	공연장,연극극장	127.11424375326531	37.223411318622
537867	1035663	17564817	용인대학교 야외공연장	공연장,연극극장	127.1706760300861	37.22741617457565
544127	1036889	11475551	용인문예회관 처인홀	공연장,연극극장	127.19890287602851	37.23179086310051
541037	1033424	17580014	명지대학교 야외음악당	공연장,연극극장	127.18494424146321	37.21932497564185
548625	1035694	17563957	용인예술과학대학교 노천극장	공연장,연극극장	127.2191650594357	37.227448101652875
578273	1029377	17562955	청강문화산업대학교 뮤지컬하우스	공연장,연극극장	127.3526881495874	37.204358148193734
508285	1045170	8189239	경기아트센터	공연장,연극극장	127.03735954715702	37.26179820300858
508179	1046273	26888207	경기문화재단 다산홀	공연장,연극극장	127.03688350013373	37.265773750250304
506986	1046833	10874831	KBS수원아트홀	공연장,연극극장	127.03150446455452	37.26779363724229
508078	1044507	7958485	수원제1야외음악당	공연장,연극극장	127.03642497159082	37.25940892913489
508325	1045100	8172520	경기도문화의전당 대극장	공연장,연극극장	127.03753979388986	37.26154585410268
506831	1046858	25689651	수원KBS 컨벤션홀	공연장,연극극장	127.03080550450179	37.26788392533154
508073	1045104	8181416	경기도문화의전당 소극장	공연장,연극극장	127.03640346133413	37.26156062562093
508285	1045182	27091165	문화예술회관공연장	공연장,연극극장	127.03735956851962	37.26184145303959
508257	1045333	8172521	경기아트센터 야외극장	공연장,연극극장	127.03723357599095	37.2623857223435
508179	1046273	217539794	정조인문예술재단	공연장,연극극장	127.03688350013373	37.265773750250304
505587	1046993	15475180	JPSEnt	공연장,연극극장	127.0251956470253	37.26837181453967
510455	1047330	819041327	진아트센터	공연장,연극극장	127.04714957791059	37.26957971050287
518470	1038648	17566087	경희대학교 국제캠퍼스 평화노천극장	공연장,연극극장	127.0832608627747	37.238268384327746
516680	1042880	995091295	에보니홀	공연장,연극극장	127.07520688916676	37.253526658072985
516417	1042540	1442991309	수인아트홀	공연장,연극극장	127.07401987517817	37.252301986685225
525198	1044530	8181804	경기국악원 국악당	공연장,연극극장	127.11362177530657	37.25944290985159
528602	1046764	27583137	구갈자연생태공원 야외무대	공연장,연극극장	127.12898464812388	37.267478878371264
526815	1044762	17576602	한국민속촌 야외공연장	테마파크시설	127.12091440679559	37.260271854158546
539753	1039318	17591666	용인 문화예술원 마루홀	공연장,연극극장	127.1792078436489	37.24057685829197
539767	1039366	17807128	용인시청 문화예술원	공연장,연극극장	127.17927136555387	37.24074976269832
404654	1051431	17852668	동춘서커스단	극단	126.56993346857031	37.28358850420822
464403	1055061	17566184	한양대학교 ERICA캠퍼스 노천극장	공연장,연극극장	126.83940701386857	37.29734388511356
462589	1058074	1093693834	카페모모	공연장,연극극장	126.83119906202077	37.308191739868015
461223	1055551	17560049	안산호수공원 중앙광장	광장	126.82505666959685	37.29908957408106
467938	1053950	9692258	감골시민홀	공연장,연극극장	126.85536249807174	37.29336025214749
470624	1056134	393486080	소극장 보노마루	공연장,연극극장	126.8674656909311	37.30124587775377
469506	1056129	1046197405	도시락	공연장,연극극장	126.86242170909945	37.301222101182915
476692	1051491	1340162867	송라민속공연장	운명감정	126.89486564074971	37.2845393234396
497883	1050271	27583943	서호공원 수변무대	공연장,연극극장	126.99045149047244	37.280188554884916
504698	1048681	2035543900	2001아울렛수원점 소극장	공연장,연극극장	127.02118823624909	37.274456428564385
507807	1048535	10847235	수원청소년문화센터 온누리아트홀	공연장,연극극장	127.03520974882575	37.273926880932365
502142	1056728	8052945	장안구민회관 한누리아트홀	공연장,연극극장	127.00966424572033	37.30346055296616
500627	1056206	9156500	만석공원 제2야외음악당	공연장,연극극장	127.00282881940267	37.301579549958085
503449	1048706	327546150	남문로데오아트홀	공연장,연극극장	127.01555519688607	37.27454740680372
503414	1049480	26338195	남문로데오청소년문화공연장	공연장,연극극장	127.01539791297367	37.27733704826233
501385	1051079	25782386	애기똥풀 인형극장	공연장,연극극장	127.00624713995943	37.28310093473889
502476	1048412	7967135	수원시민회관 대강당	공연장,연극극장	127.01116675210324	37.27348827830179
507792	1048400	17808481	수원청소년문화센터 은하수홀	공연장,연극극장	127.03514187233311	37.2734403391503
507646	1048562	17571589	수원청소년문화센터 야외공연장	공연장,연극극장	127.0344836796445	37.27402440703904
499650	1051634	17558061	숙지공원 노천극장	공연장,연극극장	126.99842125858244	37.285101395869894
509606	1053623	601313183	경기도경제과학진흥원 경기홀	공연장,연극극장	127.04333379109522	37.29226213550705
512620	1051370	1123988414	광교레이크아트홀	공연장,연극극장	127.05692417532053	37.2841362220193
513340	1052298	1784604773	아카이브아트홀	공연장,연극극장	127.06017449190519	37.28747927004195
510124	1050729	17580002	아주대학교 노천극장	공연장,연극극장	127.04566424575191	37.281830836777196
510077	1051043	2066857193	아주대학교 소극장	공연장,연극극장	127.04545293315876	37.282962623451276
526858	1053982	15573335	드럼치자	공연장,연극극장	127.12116155083282	37.29350194430626
533269	1048848	27233330	용인 동백지구호수공원 야외무대	공연장,연극극장	127.15004596901616	37.274965130525715
530360	1048542	464747257	강남뮤직타운	공연장,연극극장	127.1369241744298	37.27387816194368
584818	1053880	1226997980	예스파크 야외공연장	공연장,연극극장	127.38262477748086	37.29257788334563
593888	1049151	10610599	이천세라피아 세라믹스창조센터	공연장,연극극장	127.42344422313404	37.27539495657597
595142	1049575	17580821	설봉공원 소공연장	공연장,연극극장	127.4291084180818	37.27690271313358
594385	1049822	17580941	설봉공원 야외공연장	공원시설물	127.4256993043839	37.277805242761225
638466	1055516	17566905	여주세종국악당	공연장,연극극장	127.62467588702422	37.29744419380184
677835	1049322	11284653	후용공연예술센터	공연장,연극극장	127.80203421163789	37.274051627647125
700268	1051485	17579626	연세대학교 노천극장	공연장,연극극장	127.90328914517292	37.281117822956205
709016	1050345	17577177	국립백운산자연휴양림 야외무대	관광지부속시설	127.94269012596725	37.27670198984858
440643	1067404	19647456	KPU아트센터	공연장,연극극장	126.7320586787522	37.34163525391323
454200	1065169	1863161384	원곡공원 야외무대	공연장,연극극장	126.79327750956256	37.3337028606683
460682	1061376	12227038	안산문화예술의전당	공연장,연극극장	126.82256661851396	37.32007996084841
460799	1061529	7987492	안산문화예술의전당 달맞이극장	공연장,연극극장	126.82309331868811	37.32063218128485
460793	1061369	8001204	안산문화예술의전당 해돋이극장	공연장,연극극장	126.82306759376074	37.320055482071446
462607	1059060	1037073139	글로벌JEY아트홀	공연장,연극극장	126.8312723378327	37.311745522893894
460777	1061241	8001203	안산문화예술의전당 별무리극장	공연장,연극극장	126.8229964715278	37.31959404706506
461765	1062940	17808470	안산올림픽기념관 올림픽공연장	공연장,연극극장	126.82744104784707	37.325724026217586
458863	1063186	26596538	화랑유원지 소공연장	공연장,연극극장	126.81434186734992	37.32659081293634
462556	1059612	13126936	개콘앤웃찾사공연장	공연장,연극극장	126.831037760114	37.31373467058232
462555	1059620	1981861586	NC소극장 안산고잔점	공연장,연극극장	126.83103318320144	37.31376349712038
463853	1065121	11094581	동랑예술센터	공연장,연극극장	126.8368473994552	37.333597966002415
464325	1059400	15470907	위락	공연장,연극극장	126.8390217923551	37.312981724171884
460810	1060941	17569698	안산문화예술의전당 야외공연장	공연장,연극극장	126.82314792497183	37.31851303436915
472605	1058722	17568472	안산대학교 안산노천극장	공연장,연극극장	126.87638798795113	37.31058304936871
468925	1064399	425339006	부곡도서관 야외무대	공연장,연극극장	126.8597450786121	37.33102514750977
496869	1058524	10550147	수원시립교향악단	공연장,연극극장	126.98587238701413	37.30993314443817
498931	1058591	14745341	극단 루트	공연장,연극극장	126.99517647180855	37.310175366821
523157	1062914	1696448712	용인포은아트홀	공연장,연극극장	127.10451021144193	37.32570998996317
528020	1062853	10793379	죽전야외음악당	공연장,연극극장	127.12645707821906	37.325468718329034
521166	1061547	19532452	용인시여성회관 큰어울마당	공연장,연극극장	127.09551837480694	37.320790742972406
526619	1067399	27607051	구미공원 야외무대	공연장,연극극장	127.12016033141064	37.3418596281427
521177	1061540	19532458	용인시여성회관 작은어울마당	공연장,연극극장	127.09556798383244	37.32076547398811
528760	1061110	43226087	단국대학교 죽전캠퍼스 콘서트홀	공연장,연극극장	127.12978596144265	37.31918311419971
526022	1061483	17560136	죽전중앙공원 노천극장	공연장,연극극장	127.11743223783441	37.320540360216945
528250	1061268	17569308	단국대학교 노천마당	공연장,연극극장	127.12748543892842	37.319755067950474
521108	1061934	23349202	스터디더집중	공연장,연극극장	127.09525839193002	37.322185751734246
709636	1066968	10698306	원주댄싱공연장	공연장,연극극장	127.94623645988592	37.33658316809371
709264	1066644	8104234	치악예술관	공연장,연극극장	127.94454294650005	37.3354290073984
703687	1068310	14652194	백운아트홀	공연장,연극극장	127.91944655048944	37.34163097864011
710530	1068093	1291171444	아르코공연연습센터 원주	공연장,연극극장	127.95032229409753	37.340604906907686
708801	1066676	26404516	블루소극장	공연장,연극극장	127.9424548293309	37.335560988416724
709470	1066540	1804944089	원주댄싱공연장 상설공연장	공연장,연극극장	127.9454679436094	37.33504680317215
709540	1066408	87828053	원주댄싱공연장 주차장	주차장	127.94577789334542	37.33456859844567
426183	1076700	48100976	인천글로벌캠퍼스 대강당	공연장,연극극장	126.6666380687027	37.37497266756256
418624	1077576	17563536	인천대학교송도캠퍼스 강당및공연장	공연장,연극극장	126.63248638630569	37.37802864866715
425208	1074945	1571879679	송도야외공연장	공연장,연극극장	126.66226333812108	37.36863508440457
425315	1077796	1780623014	케이라이브 송도점	공연장,연극극장	126.66270050270455	37.378911578434874
458803	1074618	143029707	중앙공원 야외무대	공연장,연극극장	126.81396945423239	37.367792445915946
483882	1074259	8215212	군포문화예술회관	공연장,연극극장	126.92721812352094	37.36662247570867
483884	1074236	17566909	군포문화예술회관 수리홀	공연장,연극극장	126.92722723470361	37.366539586893275
483943	1074022	17566645	군포문화예술회관 철쭉홀	공연장,연극극장	126.9274943947069	37.36576847237671
485063	1071651	21657165	정암아트홀	공연장,연극극장	126.93255941423874	37.357226127522345
483536	1071097	307147954	철쭉동산 야외무대	공연장,연극극장	126.92566698017006	37.35522531933984
484978	1075408	8185797	능내공원 야외공연장	공연장,연극극장	126.93216345108209	37.37076653096779
485302	1072877	12273675	군포시청 다목적운동장	운동장	126.93363460841152	37.36164537422
484035	1074117	17570297	군포문화예술회관 야외공연장	문화시설관리운영	126.92790949410501	37.36611111614292
492025	1077960	17808151	평촌아트홀	공연장,연극극장	126.96398198212138	37.379978164960086
493314	1072644	23812895	가톨릭교육문화회관	공연장,연극극장	126.9698112551455	37.36082038194113
526878	1078045	17807008	분당중앙공원 야외공연장	공연장,연극극장	127.12139126228463	37.380227697684155
525699	1072058	8653882	계원예술고등학교 벽강홀	공연장,연극극장	127.11603322407478	37.35865531528803
527627	1076654	17807903	분당중앙공원 중앙광장	공연장,연극극장	127.12476571894057	37.37521088696767
523534	1077557	27587646	한국잡월드 나래울극장	공연장,연극극장	127.10628603084393	37.37848343847919
523534	1077557	19265307	한국잡월드 한울강당	공연장,연극극장	127.10628603084393	37.37848343847919
525604	1072193	15429583	정자아트홀소극장	공연장,연극극장	127.11560503788016	37.35914228922253
527137	1071914	2033469478	아트하우스마움	공연장,연극극장	127.1225250624794	37.35812977740884
523841	1069437	25067678	분당괜찮은홀	공연장,연극극장	127.10763071826474	37.34921688138625
528822	1077903	18754489	와이피엠	공연장,연극극장	127.1301702004778	37.379706579260215
523386	1071139	15777348	두드림 컬쳐	공연장,연극극장	127.1055852048271	37.355352925340135
531768	1076514	1710043980	샌드아트스페셜	공연장,연극극장	127.14346579164076	37.37468510777259
557912	1077013	15383761	극단가람	공연장,연극극장	127.26153870681019	37.37628138501806
572110	1070228	2107807367	경기도자박물관 소공연장	공연장,연극극장	127.3255523503734	37.35166873531022
572213	1070329	17583746	스페인조각공원 야외공연장	공연장,연극극장	127.32601892793568	37.35203146440352
624943	1076457	480747774	야외공연장	공연장,연극극장	127.564235266414	37.373220776735714
627259	1070956	1144796442	야외공연장	공연장,연극극장	127.57454253623676	37.353345220389464
709686	1071270	1050802543	드림아트홀	공연장,연극극장	127.94665672719914	37.35208416415848
711274	1069674	25574596	어울림소극장	공연장,연극극장	127.95375230812218	37.346275206326105
704975	1070497	2114733451	원주(W.J)기획	공연장,연극극장	127.92535663033453	37.34946682987846
711240	1069730	317328311	인동소극장	공연장,연극극장	127.9536013939622	37.34647824618627
710381	1069828	1428901000	극단좋은사람	공연장,연극극장	127.9497285438083	37.34686259427795
710073	1071438	27408805	더블린	공연장,연극극장	127.9484112910788	37.352675578244934
710713	1070475	1599316789	문화의거리 상설공연장	공연장,연극극장	127.95125652870962	37.34918209488306
369426	1079594	11079029	무의도아트센터플렛폼	공연장,연극극장	126.41024815030649	37.38440218799617
417252	1081805	27043248	아트센터 인천	공연장,연극극장	126.62621457020423	37.39325062174006
417233	1081776	27091837	송도아트센터 콘서트홀	공연장,연극극장	126.62612926505363	37.39314583404434
428795	1086441	1929754699	연수구청 연수아트홀	공연장,연극극장	126.67828384048374	37.41011221553711
431678	1088823	198982843	연수문화예술회관 (2023년12월예정)	공연장,연극극장	126.69127430925391	37.41873172821256
429995	1085261	1338290784	스퀘어원 문화홀	공연장,연극극장	126.68372344421672	37.40587409394912
434845	1084906	882211718	논현포대근린공원 야외공연장	공연장,연극극장	126.70564005718525	37.40465124438064
429354	1088444	221894574	문화공원 야외무대	공연장,연극극장	126.68077882642	37.41733791541345
428739	1086360	21211441	연수구청 대강당	공연장,연극극장	126.67803207609475	37.409819600969705
439060	1080135	15238986	남동소래아트홀	공연장,연극극장	126.72474543816914	37.38750221387498
439045	1080116	787479748	남동소래아트홀 대공연장	공연장,연극극장	126.7246779370957	37.3874335791759
439057	1080108	35721665	남동소래아트홀 소공연장	공연장,연극극장	126.72473224363692	37.38740487294109
451711	1080841	1536133309	시흥갯골생태공원 야외무대	공연장,연극극장	126.78187983513287	37.390165883341915
484801	1079264	11631392	안양아트센터	공연장,연극극장	126.93135148726006	37.3846634665541
484803	1079249	18468590	안양아트센터 관악홀	공연장,연극극장	126.93136056982668	37.38460941041101
484812	1079240	19835436	안양아트센터 수리홀	공연장,연극극장	126.93140124914082	37.38457699716548
487790	1079473	27282120	오렌지폭스개러지홀	공연장,연극극장	126.94485118606286	37.38542378818442
484802	1079257	21798144	안양아트센터 컨벤션홀	공연장,연극극장	126.93135602690226	37.38463824052893
484608	1081093	15974586	마술극장	공연장,연극극장	126.93047368816029	37.391254838544356
484458	1084089	25826024	대림아트홀	공연장,연극극장	126.92978606018934	37.40205227680486
484982	1079250	17570578	안양아트센터 야외공연장	공연장,연극극장	126.93216904523263	37.38461348099082
504989	1082119	895411002	원터아트홀	공연장,연극극장	127.02253663679686	37.39497092605691
499245	1080056	1541961904	B&G아트홀	공연장,연극극장	126.99658980137183	37.387537784790986
517469	1081366	127342890	코펙스 아트홀	공연장,연극극장	127.0789092319377	37.39223286613035
528895	1084350	26303946	성남아트센터 오페라하우스	공연장,연극극장	127.13054017764073	37.40294172975435
528224	1088534	2090089788	TLI아트센터	공연장,연극극장	127.12753434024243	37.4180244677133
524574	1079376	2137374094	성음아트센터	공연장,연극극장	127.11099261148631	37.38503496381158
528917	1084223	7987128	성남아트센터 앙상블시어터	공연장,연극극장	127.130638773127	37.402483902510056
528673	1083928	20709494	성남미디어센터	공연장,연극극장	127.12953462305768	37.401421913097344
528672	1083885	27266829	성남아트센터 미디어홀	공연장,연극극장	127.12952983867005	37.40126694279638
523441	1082557	26801476	화랑공원 야외공연장	공연장,연극극장	127.10589135874415	37.39650425074397
524806	1081530	26945317	토파즈홀	공연장,연극극장	127.1120520301156	37.39279717586028
528885	1084344	17570579	성남아트센터 춤의광장	공연장,연극극장	127.13049496282021	37.402920155176155
528482	1079432	24166985	동감컴퍼니	공연장,연극극장	127.12864405887514	37.38521890881931
529664	1079176	20436080	분당소극장	공연장,연극극장	127.13398111901834	37.384290335006895
530075	1087102	840681204	NCD홀	공연장,연극극장	127.13588901363238	37.4128541264933
559147	1087013	26229014	청석에듀씨어터	공연장,연극극장	127.2672440091432	37.412309418043954
596641	1080658	17560122	해여림빌리지 소공연장	공연장,연극극장	127.43651672953729	37.38890182652857
381137	1095057	17924711	인천국제공항 야외공연장	공연장,연극극장	126.46274207029767	37.440381538061075
425201	1097402	8127977	학산소극장	공연장,연극극장	126.66186816216353	37.44957040867232
417991	1094877	19920592	인천중구문화회관	공연장,연극극장	126.62932056681137	37.4403726115784
426461	1090942	2035009145	청학문화센터 청학아트홀	공연장,연극극장	126.66766692229406	37.426304716481425
433659	1096883	18274308	인천문화예술회관	공연장,연극극장	126.70010984276524	37.44780313278775
433660	1096887	17811746	인천문화예술회관 대공연장	공연장,연극극장	126.70011430559886	37.44781756028525
431956	1093945	13573287	문학시어터	공연장,연극극장	126.69245498331676	37.43719477447983
433562	1096709	11168138	인천 종합문화예술회관 소공연장	공연장,연극극장	126.69967387294703	37.44717492217994
434245	1096855	12459360	KT&G상상유니브 인천아틀리에	공연장,연극극장	126.70275918398703	37.44770891225503
430476	1094378	11323759	작은극장 돌체	공연장,연극극장	126.6857592509363	37.43873771610867
433549	1096287	22848498	인천 종합문화예술회관 야외공연장	공연장,연극극장	126.69962118919761	37.445653881631245
433792	1095871	9700508	뉴코아아울렛 인천점소극장	공연장,연극극장	126.70072558151435	37.44415740042268
433531	1096277	27586597	중앙공원 야외공연장	공연장,연극극장	126.69953996884995	37.44561763473782
432834	1096089	27350310	개그팀리어카소극장	공연장,연극극장	126.69639209572016	37.44493203005936
433658	1096898	9401636	인천문화예술회관 기획운영팀	공연장,연극극장	126.70010510658905	37.447857181421305
431691	1093995	17572945	인천문학경기장 야외공연장	공연장,연극극장	126.69125651291635	37.43737185256655
482013	1097949	1703840497	극단글로리아	공연장,연극극장	126.91868631084753	37.451997549298014
497532	1091345	17806257	과천시민회관 대극장	공연장,연극극장	126.98884645991697	37.428223776174846
497999	1091471	933311066	별별극장	공연장,연극극장	126.99095690089914	37.42867806905904
497615	1091290	11026505	과천시민회관 소극장	공연장,연극극장	126.98922158712448	37.42802558720995
497573	1091400	7960399	소극장모시는사람들	공연장,연극극장	126.98903172076115	37.42842201726657
497584	1091400	8655602	과천시민회관 야외공연장	공연장,연극극장	126.98908143277995	37.42842202186867
501491	1094269	17567802	국립과천과학관 어울림홀	공연장,연극극장	127.00673916531731	37.438762396791574
501061	1094756	17570592	국립과천과학관 노천극장	공연장,연극극장	127.00479572194023	37.440517669525434
512246	1098395	449170962	홀로키즈파크	공연장,연극극장	127.05536159407241	37.45361996303288
528867	1098080	26558143	가천대학교 예음홀	공연장,연극극장	127.13049954491217	37.45242560423942
528259	1091915	225730737	깜찍이품바공연장	공연,연극	127.12771318747606	37.430209630361475
530019	1091457	15898926	쥬라기 공원	공연장,연극극장	127.13566429946407	37.42855011079375
533843	1096775	27583903	희망대공원 야외무대	공연장,연극극장	127.15298498749065	37.44769534938077
530607	1095735	1277043288	동선아트홀	공연장,연극극장	127.13835000782286	37.443965169758734
530538	1092626	17578230	성남종합운동장 야외공연장	공연장,연극극장	127.1380175351167	37.43276053767627
534252	1091752	17570295	중원청소년수련관 야외공연장	문화시설관리운영	127.15479654560959	37.42958980449558
556397	1091003	17391496	광주시문화재단 남한산성아트홀	공연장,연극극장	127.25486752303324	37.426716962618094
556248	1091138	1145749850	광주시문화스포츠센터 남한산성아트홀 소공연장	공연장,연극극장	127.25419581804061	37.427204956986834
682167	1089451	19500464	한솔문화재단 원주	공연장,연극극장	127.823146930375	37.41853239016392
404441	1106859	82612510	씨사이드파크 하늘구름광장 야외무대	공연장,연극극장	126.56782778709027	37.483347144957136
415692	1104097	10918676	한중문화관 공연장	공연장,연극극장	126.61876068863606	37.47356817792309
410587	1103643	592954764	월미테마파크 학무대	공연장,연극극장	126.59568529200214	37.47185524863802
410721	1103530	186981533	YJ소극장	공연장,연극극장	126.59629340023022	37.4714500737682
418045	1104753	8050410	인천학생교육문화회관	공연장,연극극장	126.62938903300264	37.475966229139416
425293	1100694	8053132	인천수봉문화회관	공연장,연극극장	126.66223069289961	37.461435929336425
417013	1103499	27486942	다락소극장	공연장,연극극장	126.6247448842462	37.471432129624716
426338	1101462	1750505058	인천공연예술연습공간	공연장,연극극장	126.6669430525048	37.46421720044777
418045	1104766	975777927	인천학생교육문화회관 대공연장	공연장,연극극장	126.62938880164187	37.476013080666085
422615	1104615	1806297853	인천재능대학교 야외공연장	공연장,연극극장	126.6500571119106	37.475531893703746
434625	1106515	14918503	부평아트센터	공연장,연극극장	126.70433986065781	37.4825278380204
434731	1106450	17198411	인천광역시 부평구문화재단	공연장,연극극장	126.70482016416378	37.482294777476326
434740	1106443	17559365	부평아트센터 해누리극장	공연장,연극극장	126.70486096550965	37.48226965124464
434762	1106396	17562549	부평아트센터 달누리극장	공연장,연극극장	126.70496112557805	37.48210051232479
435845	1106092	185967249	풍물패 잔치마당소극장	공연장,연극극장	126.70986317182692	37.481017028470696
435844	1106093	15674843	전통연희단 잔치마당	공연장,연극극장	126.70985863550949	37.481020621355164
434510	1106650	17807276	부평아트센터 부평아트하우스	공연장,연극극장	126.7038178559649	37.48301307363196
434630	1106515	18324318	부평아트센터 별누리극장	공연장,연극극장	126.70436247301242	37.48252789460329
429727	1108234	16317397	인형극단 하늘	공연장,연극극장	126.68216258448192	37.488665568630225
433571	1103400	26891454	D.O.M	공연장,연극극장	126.69961811508331	37.471289388129264
429614	1101298	14490303	드림위크	공연장,연극극장	126.68175752045374	37.46366696429452
428785	1107640	1119761448	코스모40	문화시설	126.67791126974194	37.48651326881097
442932	1107097	27274108	올래	공연장,연극극장	126.74190089486052	37.4847134025581
445888	1100215	17562730	인천대공원 문화마당	공연장,연극극장	126.75535061453417	37.45993906459046
445720	1106837	1036001538	Mstory아트홀	공연장,연극극장	126.75451302549882	37.4838032343226
449234	1108104	7913807	부천시민회관 대공연장	공연장,연극극장	126.77039136239726	37.488401458941304
448362	1106466	1409845551	송내어울마당 솔안아트홀	공연장,연극극장	126.76646581521598	37.482490370744436
452310	1108560	238179257	소극장극예술공간	공연장,연극극장	126.78429892935581	37.49007110415239
455663	1108006	17565447	가톨릭대학교 콘서트홀	공연장,연극극장	126.79946974132397	37.4881011983159
449252	1107989	10465189	부천시민회관 소공연장	공연장,연극극장	126.77047404177414	37.487987156818356
447663	1099895	17806945	인천대공원 어울큰마당	공연장,연극극장	126.76337925608783	37.45880211965785
455739	1105790	1063690326	소사어울마당 소향관	공연장,연극극장	126.79983478493948	37.4801152902808
449240	1108018	1228910051	부천시민회관 부천공연예술연습공간	공연장,연극극장	126.77041944803253	37.48809156744712
453772	1100643	22854843	아트스페이스더소사	공연장,연극극장	126.79099096582652	37.46155000339803
450968	1108360	17579641	부천대학교 야외공연장	공연장,연극극장	126.77823125787103	37.48933906547128
476966	1103453	27168222	문화정원아트홀	공연장,연극극장	126.89584289656955	37.471816295458666
469872	1104922	1758549972	광명시민회관 대공연장	공연장,연극극장	126.86375510605362	37.47707798540877
474887	1108391	1464800764	구로꿈나무극장	공연장,연극극장	126.88641497794887	37.489604331053414
471225	1102058	1322216301	광명문화예술교육지원센터 광명극장	공연장,연극극장	126.86989152289955	37.4667629334583
476936	1103120	614932744	레미어린이극장 금천점	공연장,연극극장	126.89570890766176	37.4706160317765
475156	1102512	1028410069	효명아트홀	공연장,연극극장	126.88766337352517	37.468417399839915
474401	1102872	11555739	싸이먼아트센터	공연장,연극극장	126.88424751058848	37.46971155808753
477722	1103213	15674142	빛	공연장,연극극장	126.8992625976693	37.47095429059533
477540	1102211	27191538	노보텔앰배서더독산 신라홀	공연장,연극극장	126.89844451064205	37.4673423403607
471408	1100875	872999660	광명시민체육관 오픈아트홀	공연장,연극극장	126.87072631126294	37.462500265919594
476035	1104855	25082438	오씨어터	공연장,연극극장	126.89162573255976	37.47686536490271
473819	1105217	12893929	씨투지	공연장,연극극장	126.88160252147708	37.47816040762092
477050	1106272	1225378482	공연장안전지원센터	건축설계,컨설팅	126.89620868450599	37.48197639785571
484283	1106338	25923280	삼모아트센터	공연장,연극극장	126.9289196545799	37.48223847111118
479740	1106863	24056461	관악문화회관	공연장,연극극장	126.90837158627235	37.484116440247256
486492	1106802	651196627	틈새소극장	공연장,연극극장	126.93890851982592	37.48391633009363
485690	1102982	1132019077	관악청소년회관 소극장	공연장,연극극장	126.93529325619227	37.47014698049271
484092	1105753	1377823016	딥숲	공연장,연극극장	126.92805787653619	37.480129588891835
483097	1106604	15605206	라이브홀더클럽	공연장,연극극장	126.92355498102239	37.48319379503849
491765	1105136	26407156	공연하닭	공연장,연극극장	126.96275924138558	37.47792193121164
497096	1107421	759232738	필라이브홀	공연장,연극극장	126.98686593294723	37.48616229104013
492459	1104470	1438938133	배우는소극장	공연장,연극극장	126.96589877554068	37.475522589332805
491159	1103264	17980225	낙성대공원 전통야외소극장	공연장,연극극장	126.96002235005315	37.471174274320944
490044	1100436	1532226892	서울대학교 인문소극장	공연장,연극극장	126.9549866031104	37.460980224173646
495761	1105132	17114788	액션가면소극장	공연장,연극극장	126.98083016919759	37.477911828779256
495415	1105611	27583424	문화놀이터액션가면 1연습실	공연장,연극극장	126.97926499273241	37.479637898403055
496250	1108930	1107483222	더블레싱뮤지컬센터	공연장,연극극장	126.98303845665401	37.491600286731995
495308	1104861	19264886	연습실 사당점	공연장,연극극장	126.97878186481728	37.47693478434274
491781	1105176	19678915	고려오페라단	공연장,연극극장	126.96283152602992	37.47806611548274
502610	1105493	17344023	예술의전당	공연장,연극극장	127.01180328535818	37.47921385186654
506340	1107357	8142719	한전아트센터	공연장,연극극장	127.02867414784221	37.48592888340092
503053	1105534	17570176	예술의전당 오페라하우스	공연장,연극극장	127.01380670537428	37.47936140027062
503065	1105603	8491060	예술의전당 CJ토월극장	공연장,연극극장	127.01386101939163	37.479610072465924
501952	1105135	12446320	국립국악원	공연장,연극극장	127.00882743946043	37.47792386620722
502632	1105430	10631818	예술의전당 콘서트홀	공연장,연극극장	127.01190274063674	37.47898678754181
503212	1106196	26967129	에스씨씨홀	공연장,연극극장	127.01452621933974	37.481747186077165
503098	1105444	8459225	예술의전당 자유소극장	공연장,연극극장	127.01401015013128	37.47903701297484
500994	1107513	7868375	모차르트홀	공연장,연극극장	127.00449563377687	37.48649450656475
508492	1105845	10643801	영산양재홀	공연장,연극극장	127.03840428523593	37.480476821003705
502701	1105475	17064807	예술의전당 IBK챔버홀	공연장,연극극장	127.01221480696185	37.47914893737061
502311	1107193	16674256	콘서트하우스	공연장,연극극장	127.0104519616567	37.48534083918625
501291	1105787	652669050	브라움홀	공연장,연극극장	127.00583841251841	37.48027388401614
502575	1106518	926424034	코스모스홀	공연장,연극극장	127.0116455770603	37.482908004484024
501931	1105049	22135736	국립국악원 예악당	공연장,연극극장	127.00873243606556	37.477613925991086
502606	1105550	8015148	예술의전당 음악당	공연장,연극극장	127.01178522829461	37.47941928378556
502816	1106332	19629735	페리지홀앤갤러리	공연장,연극극장	127.01273539881961	37.48223754150402
507443	1101817	26396871	더케이아트홀	공연장,연극극장	127.03365377090226	37.46596119357816
502513	1105498	10633488	예술의전당 리사이틀홀	공연장,연극극장	127.01136462193443	37.47923191505901
502108	1105241	17574744	국립국악원 우면당	공연장,연극극장	127.00953295957655	37.47830583940656
502915	1106289	26324315	엘림아트홀	공연장,연극극장	127.01318310044581	37.48208251887718
502798	1105701	17089637	예술의전당 한가람미술관 제7전시실	공연장,연극극장	127.0126536100768	37.479963403551004
502837	1106715	1262056943	IPAC홀	공연장,연극극장	127.01283060764483	37.483617876577966
506836	1108090	914596498	쿤스트하우스	공연장,연극극장	127.03091851347084	37.48857007296048
501819	1108330	1494908564	샤론홀	공연장,연극극장	127.0082272422427	37.48943879966733
502788	1106390	1734202756	라율아트홀	공연장,연극극장	127.01260880356271	37.482446589127875
504339	1107806	90103383	정효아트센터	공연장,연극극장	127.01962457649176	37.487548943742304
501975	1105072	397795313	국립국악원 풍류사랑방	공연장,연극극장	127.00893142427493	37.47769680399487
502582	1105533	1998992940	예술의전당 인춘아트홀	공연장,연극극장	127.01167668250874	37.47935802593192
503055	1105534	10524680	국립발레단	공연장,연극극장	127.01381575005493	37.47936139921339
502999	1106593	19978033	클라라아카데미홀	공연장,연극극장	127.0135631888558	37.483178102527056
503151	1105786	26139985	국립예술단체 공연연습장	공연장,연극극장	127.0142500671923	37.48026956490931
504339	1107806	1758735095	정효국악문화재단 정효아트홀	공연장,연극극장	127.01962457649176	37.487548943742304
502404	1106603	743570114	제이앤알아트홀	공연장,연극극장	127.01087226469507	37.48321442113661
502348	1105118	8129404	한국예술종합학교 이강숙홀	공연장,연극극장	127.01061824327927	37.47786245020029
501646	1109329	748845681	흰물결아트센터 예술극장	공연장,연극극장	127.00744512961406	37.49303927736656
504821	1107195	11470465	숲뮤직아트센터	공연장,연극극장	127.02180394232018	37.48534649764637
501977	1105075	319145539	국립국악원 연희마당	공연장,연극극장	127.0089404700432	37.47770761542515
501909	1105041	1022020068	풍류사랑방	공연장,연극극장	127.00863294357669	37.47758510099665
504520	1106684	588525878	산지뮤직홀	공연장,연극극장	127.02044210756927	37.48350507976181
507059	1108512	26883550	야마하뮤직커뮤니케이션센터 서울	공연장,연극극장	127.03192776633719	37.490090705561585
508168	1106440	19705888	산리허설스튜디오	공연장,연극극장	127.03694008112804	37.48262168902624
499266	1105920	25775382	백석아트홀	공연장,연극극장	126.9966805405346	37.48075331847901
507110	1108500	1984653145	야마하콘서트살롱	공연장,연극극장	127.03215842010827	37.49004739463817
502218	1107425	12391880	베토벤하우스	공연장,연극극장	127.01003146228196	37.48617701133926
501889	1105066	893172148	국립국악원 예인마루	공연장,연극극장	127.00854250916555	37.47767520852382
502838	1106715	1573198324	인터내셔널퍼포밍아트센터	공연장,연극극장	127.01283513024171	37.483617876086754
508170	1106440	287594331	sAn 리허설 스튜디오	공연장,연극극장	127.03694912620007	37.48262168619795
503073	1105544	385168157	예술의전당 컨퍼런스홀	공연장,연극극장	127.0138971588551	37.47939743003718
502726	1105518	13337897	예술의전당 야외공연장	공연장,연극극장	127.01232789060933	37.47930389922502
511709	1103963	11309318	M극장	공연장,연극극장	127.05294807992873	37.473688398907385
510189	1106526	1101911663	공간4567	공연장,연극극장	127.0460803160474	37.482928424779665
511239	1104290	15204121	나음아트홀	공연장,연극극장	127.05082353945453	37.47486785284715
509696	1103244	780645425	SCC선아트홀	공연장,연극극장	127.0438437861005	37.47110082223573
518225	1107330	7947233	세라믹팔레스홀	공연장,연극극장	127.08242672698212	37.48580630135301
509042	1104642	1618111819	양재천 수변무대	공연장,연극극장	127.04088924644107	37.47614033002466
510254	1106750	24925850	도곡2문화센터 오유아트홀	공연장,연극극장	127.0463747810236	37.48373561327116
509594	1103582	23907423	언남교육문화회관	공연장,연극극장	127.04338326231735	37.4723191582495
509353	1106902	7857944	라트어린이극장	공연장,연극극장	127.04230022476504	37.48428495547214
508935	1109253	29823921	쎄듀컬쳐센터	공연장,연극극장	127.04041432737367	37.492758693171865
511202	1107972	19272861	모터앤뮤지엄	공연장,연극극장	127.0506651822052	37.4881379793681
510473	1104877	19358362	뮤직플러스아동음악연구회	공연장,연극극장	127.0473609703205	37.47698486228277
511776	1104366	14522426	엠텐 프로덕션	공연장,연극극장	127.0532520841956	37.475140690308336
511225	1100677	8372503	서초주니어센터	공연장,연극극장	127.05075142680556	37.46184647473826
527694	1105021	1771551407	서울365거리공연 가든파이브광장	공연장,연극극장	127.12523847546004	37.47744696361185
528828	1105958	27047610	송파새싹극장 장지관	공연장,연극극장	127.13037253245412	37.480818390955925
527727	1104925	26133619	가든파이브 아트홀	공연장,연극극장	127.12538713046591	37.47710081848507
527787	1105064	1837711553	괜찮은홀 송파홀	공연장,연극극장	127.12565930086932	37.4776014903638
609649	1108957	26347839	쉐아르	공연장,연극극장	127.49594315383462	37.49065785479868
383436	1110392	2082710624	하늘문화센터 대강당	공연장,연극극장	126.4727450775958	37.495693984641136
419155	1118080	1712834845	청라블루노바홀	공연장,연극극장	126.63417425462865	37.52401172008442
429275	1115776	11472055	인천서구문화회관	공연장,연극극장	126.68000228174704	37.5158411687182
429265	1115814	8054042	인천서구문화회관 대공연장	공연장,연극극장	126.67995645219331	37.515977996550724
434598	1112735	10830245	코스모스아트홀	공연장,연극극장	126.70412933719119	37.50494428904362
429305	1110556	353311714	나우엠다목적홀	공연장,연극극장	126.68021827313969	37.49702884288264
429276	1115806	8054043	인천서구문화회관 소공연장	공연장,연극극장	126.68000634456341	37.515949299728604
434604	1117011	18489996	청소년놀이마당 청천극장	공연장,연극극장	126.70409564590796	37.520354926692335
434593	1112748	943031886	인천 레미어린이극장	공연장,연극극장	126.7041065331672	37.50499108404003
428922	1115584	497987223	청청극장	공연장,연극극장	126.6784081132836	37.515144870964434
434503	1114952	66869599	이화국악원	공연장,연극극장	126.70366799009459	37.51293321490078
445639	1109920	799321806	복사골문화센터	공연장,연극극장	126.75411027921366	37.49491359764347
443452	1111397	1073500142	웅진플레이도시 상상아트홀	공연장,연극극장	126.74419980999697	37.50021568698595
446172	1112603	633245404	뉴코아아울렛 부천점 뉴코아소극장	공연장,연극극장	126.75648976573169	37.504588101615205
445695	1109913	18855214	복사골 문화센터 판타지아극장	공연장,연극극장	126.75436366307513	37.49488889662807
440468	1112390	770725253	부평소극장	공연장,연극극장	126.73068868500972	37.50376444240036
443788	1114098	14950609	베스텍컴홀딩스	공연장,연극극장	126.7456867057994	37.50995333404661
443871	1113809	18782961	PISAF 조직위원회	공연장,연극극장	126.74606573787372	37.50891259074709
455040	1119000	10626457	오정아트홀	공연장,연극극장	126.79654450468838	37.527718724001225
453550	1113923	573765356	도당근린공원 야외무대2	공연장,연극극장	126.78985323382456	37.50940946467317
465962	1110000	110967947	오류문화센터	공연장,연극극장	126.84603579883844	37.495357487007865
465962	1110000	897176381	오류문화센터 오류아트홀	공연장,연극극장	126.84603579883844	37.495357487007865
467388	1112556	873566195	고척근린공원 야외무대1	공연장,연극극장	126.8524678866164	37.50457757329132
457716	1119199	15775811	이룸씨어터	공연장,연극극장	126.80865219310121	37.52845615779544
463993	1116549	459722364	신민요민속보존회	공연장,연극극장	126.83707815980328	37.518948176172856
475595	1113807	14090753	디큐브아트센터	공연장,연극극장	126.88958848958987	37.50912672881107
475425	1110351	8191841	구로아트밸리 예술극장	공연장,연극극장	126.88883785595849	37.496670528364916
469770	1115876	11108826	양천문화회관	공연장,연극극장	126.86322185931859	37.51655584563793
471437	1118792	608658254	로운아트홀	공연장,연극극장	126.87074619294081	37.52707360880913
471608	1118751	1219470316	한국방송회관 코바코홀	공연장,연극극장	126.87152025688829	37.52692668918895
471519	1119455	11833134	KT체임버홀	공연장,연극극장	126.87111314880525	37.52946346504695
474386	1111299	19551745	예술나무씨어터	공연장,연극극장	126.88413279048794	37.50008262171094
475656	1113280	17813956	프라임아트홀	공연장,연극극장	126.88986725175475	37.507227671685484
476804	1119408	26551231	tcc아트센터	공연장,연극극장	126.8950298863834	37.52931775619809
475610	1110478	8189116	구로구민회관 대강당	공연장,연극극장	126.88967400709267	37.49712902332575
469779	1115856	27319305	양천문화회관 대극장	공연장,연극극장	126.86326271197566	37.51648381270435
475834	1115751	1859969394	라이브홀문래재즈IN	공연장,연극극장	126.89065953574602	37.516133930367445
471973	1117889	19617101	목동 아트홀	공연장,연극극장	126.87317721374123	37.523821826343074
471580	1118774	24664445	극단키즈터미널	공연장,연극극장	126.87139340901437	37.52700944325793
469642	1110748	2040670533	키즈홀 2001아울렛구로점	공연장,연극극장	126.86267657272312	37.498073812086645
477121	1115141	1532742404	스튜디오QDA	공연장,연극극장	126.89648566925399	37.513940731596655
477120	1115154	26481206	주말극장	공연장,연극극장	126.8964810801227	37.51398757976234
477133	1115084	22961756	지비엔라이브하우스	공연장,연극극장	126.8965402458556	37.51373535058641
468231	1118266	26338192	극장드라폼	공연장,연극극장	126.8562420209501	37.52516113766722
477617	1119160	27455023	꿈이룸소극장	공연장,연극극장	126.89871020249376	37.52842717665417
476561	1115019	1308335848	화이트칼럼스	공연장,연극극장	126.89395261703967	37.51349879478163
476872	1118812	2018801595	액터즈 스튜디오	공연장,연극극장	126.89534061108922	37.527170044593944
476272	1114573	26788689	몬스덕	공연장,연극극장	126.89264737016136	37.51189022497818
475834	1110390	15598538	엔티라이브	공연장,연극극장	126.89068771173538	37.496812811498195
474399	1110799	25412575	극단	공연장,연극극장	126.88419437994419	37.498280670563894
470852	1116353	335249360	양천공원 야외무대	공연장,연극극장	126.86811442045278	37.518280523373036
477345	1118852	1736647913	아라기획	공연장,연극극장	126.89748084175204	37.527316082062974
477370	1118415	1220635218	공간헤븐	공간대여	126.89759612532251	37.525741231117564
483415	1119445	8005993	영산아트홀	공연장,연극극장	126.92494684051184	37.529473905905405
481265	1118435	11000761	여의도KBS홀	공연장,연극극장	126.91522143705556	37.525827278329295
486089	1114865	7991264	CTS아트홀	공연장,연극극장	126.93706152269857	37.512974613290936
478807	1116091	12037759	타임스퀘어 CGV아트홀	공연장,연극극장	126.90410945977374	37.51737097973177
483897	1114551	12735693	아트홀봄	공연장,연극극장	126.92714521582084	37.511837252151885
486841	1116788	7957477	63아트홀	공연장,연극극장	126.94045833927264	37.519906893217026
479508	1115703	1436086021	롯데백화점 영등포점 롯데문화홀	공연장,연극극장	126.90728295347918	37.5159751564244
484271	1117167	56792034	신영체임버홀	공연장,연극극장	126.92882834906017	37.52126637801173
485030	1114259	27277222	쏙아트홀	공연장,연극극장	126.93227219390572	37.5107879301954
478906	1116172	12735535	아트리움	공연장,연극극장	126.90455702603768	37.51766326725124
479120	1117022	1885789732	푸른극장	공연장,연극극장	126.90552143765012	37.52072745237936
487958	1113901	27505360	기타치는 냐옹이	공연장,연극극장	126.94552008718362	37.50950454491886
487088	1117601	17652448	아리수아트홀	공연장,연극극장	126.94157367619214	37.52283751110532
485025	1114246	26532521	AAC아트홀	공연장,연극극장	126.9322496150903	37.51074106502268
487017	1112590	26887123	국화소극장	공연장,연극극장	126.94126655817682	37.50477763679044
483326	1112878	20052886	아리인	공연장,연극극장	126.92456791077095	37.50580611178275
490726	1116164	164775369	서울 노들섬라이브하우스	공연장,연극극장	126.9580383875242	37.517665543300126
495348	1118006	11028993	국립중앙박물관 극장용	공연장,연극극장	126.97894945710317	37.524309710570755
489921	1112748	11249716	중앙대학교 중앙문화예술관	공연장,연극극장	126.95440353439614	37.50535287339442
492168	1119273	2138867352	대원콘텐츠라이브	공연장,연극극장	126.96455763279425	37.5288725468143
489919	1112755	2145773186	중앙대학교아트센터 대극장	공연장,연극극장	126.95439447123697	37.50537809804219
496535	1110260	1678573951	리한아트홀	공연장,연극극장	126.98432653225228	37.49639382206376
508300	1111899	8029884	LG아트센터	공연장,연극극장	127.03754690322639	37.50229589158216
505635	1117932	23520901	광림아트센터 BBCH홀	공연장,연극극장	127.02549857808611	37.52404213730889
507453	1118393	22045591	윤당아트홀	공연장,연극극장	127.03372584038225	37.52570152274091
505591	1117902	22555870	광림아트센터	공연장,연극극장	127.02529944000788	37.52393405984171
505874	1117990	10730162	광림아트센터 장천홀	공연장,연극극장	127.02658013575537	37.52425093141292
506520	1115194	23941255	삼익아트홀	공연장,연극극장	127.02949934961732	37.51417341905392
506157	1110796	18617850	강남스퀘어	공연장,연극극장	127.02785108894128	37.49832333673263
507703	1116934	27027521	SJ쿤스트할레	공연장,연극극장	127.03485467800608	37.52044294409106
507347	1109975	26562481	강남씨어터	공연장,연극극장	127.03323272252433	37.49536303982069
504115	1113914	776799652	리코디아 아트홀	공연장,연극극장	127.01861692595418	37.509562493577604
506097	1118536	772741182	국제아트홀	공연장,연극극장	127.02758994616876	37.52621848872693
506964	1117709	2028438739	세븐파이프홀	공연장,연극극장	127.03151201219553	37.52323699174491
503183	1115394	13322968	아이노스아트홀	공연장,연극극장	127.01440143209062	37.51489702789883
506575	1118415	1975988494	아이러브아트홀	공연장,연극극장	127.0297528027777	37.52578187863952
506569	1115164	27548377	엠팟	공연장,연극극장	127.02972100428035	37.51406524301633
501034	1112380	897345258	JW메리어트호텔 서울 그랜드볼룸	공연장,연극극장	127.00467763847374	37.50403530083688
504496	1117392	870515976	꼴레아 아트홀	공연장,연극극장	127.02034403392011	37.522096972087425
499509	1118503	479827651	창작예술집단 보광극장	공연장,연극극장	126.997778146174	37.526102758145775
507001	1117416	1493887107	아시아고아트홀	공연장,연극극장	127.03167899022255	37.52218097200844
506420	1118603	1052424299	엘라홀	공연장,연극극장	127.02905166874014	37.52645960676728
507454	1118380	18892319	윤당아트홀 1관	공연장,연극극장	127.03373034442303	37.525654669342416
505527	1113259	23635857	리듬앤씨어터 논현소극장	공연장,연극극장	127.02500425457102	37.50720068156216
502678	1109713	1681509956	무이아트홀	공연장,연극극장	127.01211325934214	37.49442283783088
504454	1115543	22017044	스페이스 바움	공연장,연극극장	127.0201521951781	37.51543318499961
506131	1117710	11264139	유림아트홀	공연장,연극극장	127.02774269946492	37.523241541290275
506771	1115913	20943814	국제예술대학교 국제콘서트홀	공연장,연극극장	127.03063604320553	37.51676441641787
505497	1111291	27305622	강남아트홀	공연장,연극극장	127.02486618156068	37.50010799505886
508057	1112242	1557850955	Mfor아트스페이스	공연장,연극극장	127.03644823960056	37.503532415403754
504290	1110212	17504887	L&S아트홀	공연장,연극극장	127.01940520084383	37.49622027474483
504791	1115800	241443425	무인 신사동지점	공연장,연극극장	127.02167722495379	37.5163591467449
506693	1111024	11760890	KB아트홀	공연장,연극극장	127.03027600764536	37.49914445788612
507981	1115171	18479300	임페리얼팰리스 두베홀	공연장,연극극장	127.03610951561119	37.514088690868554
501047	1112507	7964922	센트럴시티 밀레니엄홀	공연장,연극극장	127.00473647715715	37.504493009272636
508010	1118992	7996074	압구정예홀	공연장,연극극장	127.03624738535854	37.52785957652683
504770	1116484	20057715	브로드웨이 뮤지컬씨어터	공연장,연극극장	127.02158291891905	37.518824309369435
499375	1110765	197328500	알프스멜로디	공연장,연극극장	126.99717282676852	37.49821486115798
506303	1117169	25933388	마이라이브홀	공연장,연극극장	127.02852025507332	37.52129158626304
505505	1111280	19451665	강남아트홀 1관	공연장,연극극장	127.02490235712258	37.50006834317062
507454	1118380	19386911	윤당아트홀 2관	공연장,연극극장	127.03373034442303	37.525654669342416
506930	1113868	1904131691	엑스스페이스	공연장,연극극장	127.03135237079056	37.50939401498639
505502	1111293	12436025	강남아트홀 2관	공연장,연극극장	127.02488880190784	37.50011519834394
500192	1112518	15716777	반포아트홀	공연장,연극극장	127.0008685807989	37.50453274527585
507797	1114672	752501278	라펠리체 아트스퀘어	공연장,연극극장	127.03527617327062	37.51229053857636
505598	1111667	22015604	강남뮤지컬순위아트홀	공연장,연극극장	127.02532352188867	37.50146301090441
499145	1118598	19973650	프로젝트박스시야	공연장,연극극장	126.99613097005702	37.52644509647245
506815	1116579	13081909	JB아츠앤컴퍼니	공연장,연극극장	127.03083611310569	37.51916463726536
506768	1115935	1662696940	국제콘서트홀	공연장,연극극장	127.03062250181682	37.516843708239385
508188	1117615	26313932	엠큐브	공연장,연극극장	127.03705042825246	37.52289660723635
501356	1111215	18431187	가톨릭대학교 마리아홀	공연장,연극극장	127.00613396769077	37.49983654703143
507454	1116743	11432574	주주클럽	공연장,연극극장	127.03372768850105	37.51975490499061
514401	1113141	8476401	KT&G 상상마당 대치아트홀	공연장,연극극장	127.0651500156521	37.50676008739807
513000	1114739	8106109	코엑스 D홀	공연장,연극극장	127.05881642415056	37.51252263172407
509823	1110645	8027783	예림당아트홀	공연장,연극극장	127.04443385389813	37.49777405551253
513006	1114778	23578446	코엑스 컨퍼런스룸	공연장,연극극장	127.05884368052841	37.5126631747847
510723	1114410	1488142904	슈피겐홀	공연장,연극극장	127.0485137375197	37.51134159099693
513388	1113175	10951541	한국문화의집코우스	공연장,연극극장	127.06056731270563	37.50688506268862
512277	1113948	1479195382	SAC아트홀	공연장,연극극장	127.05554321504809	37.50967343857656
509733	1110878	9173875	신한아트홀	공연장,연극극장	127.04402723647483	37.4986139456544
514604	1111950	11953136	마리아칼라스홀	공연장,연극극장	127.06606460312611	37.5024671903553
513120	1114564	15229863	코엑스 오디토리움	공연장,연극극장	127.0593588452368	37.51189165749148
509869	1114102	11293855	민속극장풍류	공연장,연극극장	127.04464935161317	37.51023307751577
518275	1113935	25450775	아지트합주실	공연장,연극극장	127.0826791036159	37.50961070963068
513406	1114423	18481255	코엑스 아트홀	공연장,연극극장	127.0606523838128	37.51138283398853
514534	1115416	14723317	베어홀	공연장,연극극장	127.06575889894951	37.51495888923388
512274	1113958	13562992	서울종합예술실용학교 아트센터	공연장,연극극장	127.05552966924714	37.50970948512661
513292	1114243	8558183	코엑스 그랜드컨퍼런스룸	공연장,연극극장	127.06013609665908	37.51073437486336
510712	1112588	16416321	아트홀가얏고을	공연장,연극극장	127.04845972553585	37.50477509011681
513404	1113360	7986649	CMG섬유센터 이벤트홀	공연장,연극극장	127.06064023599487	37.507551768894345
513526	1115052	12736074	포니정홀	공연장,연극극장	127.06119714699234	37.51364947926725
509125	1117431	17264478	유시어터	공연장,연극극장	127.04128995575095	37.522232063282644
510118	1113367	340698124	파인트리시어터	공연장,연극극장	127.04577426006824	37.50758369316545
511965	1117882	8164487	호텔리베라 베르사이유홀	공연장,연극극장	127.05414191738397	37.52385227958708
515385	1119088	14492140	뚝섬물보라극장	공연장,연극극장	127.06962153083693	37.52819060260689
511183	1118223	197699135	알디스페이스아트홀	공연장,연극극장	127.05060417967753	37.52508281548173
511389	1118506	27594269	넥스트 스테이지	공연장,연극극장	127.05153705131933	37.52610234649024
516154	1115235	27051220	FB시어터	공연장,연극극장	127.07308792709358	37.514302254890936
509554	1113982	1304846650	돌체아트홀	공연장,연극극장	127.04322397890876	37.50980112552619
517791	1112381	2068300368	하늘아트홀	공연장,연극극장	127.08048339712565	37.504011579937696
510912	1118762	18496249	더펀팩토리	공연장,연극극장	127.04937915871973	37.52702589443747
513504	1115075	19142921	제이엘아트	공연장,연극극장	127.0610976776342	37.51373242311936
508874	1111663	19388118	애드티브 컨텐츠베이	공연장,연극극장	127.04014306445772	37.501444488423644
509209	1110252	19109664	피와이 프로덕션	공연장,연극극장	127.04165566926686	37.4963586855588
509118	1117434	17001002	광대무변	공연장,연극극장	127.04125828722556	37.522242886381484
514587	1114155	17165962	백암아트센터	문화시설	127.06599469494512	37.5104140933973
509513	1114328	17112974	성암아트센터	문화시설	127.04303920372526	37.511048183175845
522040	1114225	14091493	롯데월드 샤롯데씨어터	공연장,연극극장	127.09971395114324	37.51064272273633
523182	1115158	27405165	롯데콘서트홀	공연장,연극극장	127.10488531532062	37.51400079039815
528795	1118622	14097689	호원아트홀	공연장,연극극장	127.13030258951432	37.52645977537992
527630	1115925	11334700	올림픽공원 우리금융아트홀	공연장,연극극장	127.1250145466167	37.51674547882492
527696	1116503	7937737	올림픽공원 88잔디마당	공연장,연극극장	127.12531665270474	37.51882827725814
522110	1114449	17475246	롯데호텔월드 크리스탈볼룸	공연장,연극극장	127.10003172392076	37.511449753709535
521706	1113874	7942060	서울놀이마당	공연장,연극극장	127.09820120429082	37.509378980094986
528156	1115363	21447546	뮤즈라이브	공연장,연극극장	127.12739103501889	37.51471748453829
521735	1113152	1769344424	석촌호수 아뜰리에	공연장,연극극장	127.09832899128418	37.50677677266677
523085	1115089	437872808	롯데문화재단	공연장,연극극장	127.10444609981688	37.51375250259677
528006	1115015	27139003	올림픽공원 K아트홀	공연장,연극극장	127.12671024531336	37.513464020094226
521787	1114379	17361130	잠실롯데월드 예술극장	공연장,연극극장	127.0985700532737	37.51119870136901
527879	1115299	8487684	올림픽컨벤션센터 예술극장	공연장,연극극장	127.12613737085199	37.51448817313603
527823	1114200	531187439	KBEC발레시어터	공연장,연극극장	127.12587734963861	37.51052763850178
525661	1113616	21174208	DNG홀	공연장,연극극장	127.11609274726382	37.50843291454364
524741	1112039	19452763	블루퍼포먼스스튜디오	공연장,연극극장	127.11192210409288	37.5027534014489
520593	1111878	26198084	송파구민회관 대강당	공연장,연극극장	127.09315689226962	37.502189442621265
523366	1113968	22079472	파티하우스 루이	공연장,연극극장	127.10571176009522	37.509711275020784
521635	1114509	462170082	롯데월드민속박물관 놀이마당	공연장,연극극장	127.09788297850767	37.511667794823815
521677	1114350	12735666	롯데월드 가든스테이지	공연장,연극극장	127.09807224859003	37.51109459925891
521555	1112988	1943861731	아르스아트홀	공연장,연극극장	127.09751390478715	37.50618638919825
523225	1114666	1039704842	석촌호수수변무대	공연장,연극극장	127.10507737952493	37.51222744436302
527050	1119371	27071094	강동어린이회관 아이누리홀	공연장,연극극장	127.12241057653209	37.52916761886995
519373	1113439	1779362773	WS뮤직홀	공연장,연극극장	127.08764454086503	37.507819536767585
528024	1114995	1457122649	온라인실감형K팝공연장 (2021년10월예정)	공연장,연극극장	127.12679156232821	37.51339185255419
528380	1112045	1392203769	송파어린이문화회관 아이소리홀	공연장,연극극장	127.12838403274512	37.50275828166752
525271	1115844	21406540	호박한류관광 공연장	공연장,연극극장	127.11434060310845	37.51646436902456
528385	1115565	7934467	올림픽공원 테니스경기장	테니스장	127.1284283842815	37.51544437179056
592921	1112083	20451768	양평캐슬아씨시 콘서트홀	공연장,연극극장	127.42034747148485	37.50221712091599
600265	1111348	27287800	제이앤백 헐리우드카페공연장	카페	127.4535526421656	37.49944536069162
600262	1111348	21127588	제이앤백 헐리우드공연장	문화시설	127.4535390719377	37.499445412792454
605910	1110585	864590329	양근섬 야외무대	공연장,연극극장	127.47906965743383	37.496594787998525
626816	1110937	20953578	경기도학생교육원 양평학생야영장 야외음악당	공연장,연극극장	127.57364086237183	37.497442017061424
716116	1109758	24565952	횡성문화예술회관	공연장,연극극장	127.97748336921558	37.49054165424216
718164	1111831	8185191	횡성야외공연장	공연장,연극극장	127.98684342616109	37.4979346935281
743368	1113835	10092982	정금민속관	박물관	128.10093900800607	37.50414850464974
419762	1120304	1831159228	엘림아트센터	공연장,연극극장	126.63688204380347	37.532035346743726
419762	1120310	1742659879	엘림아트센터 엘림홀	공연장,연극극장	126.63688193896867	37.53205697033773
423927	1120748	1171286859	아띠홀	공연장,연극극장	126.65572312180032	37.53369194600097
419760	1120305	190655946	엘림아트센터 챔버홀	공연장,연극극장	126.63687297547496	37.53203892284651
437746	1124126	10169429	인천광역시계양구시설관리공단 계양문화회관	공연장,연극극장	126.71821597281671	37.546031867864514
439893	1124655	916895072	계양산 야외공연장	공연장,연극극장	126.72792703687736	37.547961150668094
437735	1124132	8177508	계양문화회관 공연장	공연장,연극극장	126.71816610199757	37.54605337275495
441616	1119982	15209452	작전체육공원 계양구야외공연장	공연장,연극극장	126.73578551279232	37.53113754940472
442302	1124917	14540753	레인보우 라이노	공연장,연극극장	126.73882791993107	37.54893000881878
439890	1127216	967690560	한국전통민족종교총연합회 한국전통민속문화공연장	단체,협회	126.72787990139196	37.557190839396185
466416	1127036	27305412	KBS아레나	공연장,연극극장	126.84796482045935	37.556757818812805
462293	1129433	992535148	LG아트센터 (2022년3월예정)	공연장,연극극장	126.8292803105417	37.56537102835645
458572	1129820	1904266033	초이아트홀	공연장,연극극장	126.81242994185861	37.566740199733545
462650	1120316	23799516	양천문화회관	공연장,연극극장	126.83097084676308	37.532515879553614
466134	1128149	1777686244	유니버셜씨어터	공연장,연극극장	126.84667998835016	37.56076739292709
464783	1127934	14680953	극단 리틀드럼	공연장,연극극장	126.84056533948075	37.55998443761513
477278	1120316	1482688193	창작플랫폼 경험과상상	공연장,연극극장	126.89717040854508	37.532592075018016
472163	1126173	1504116688	오아시스 아트홀	공연장,연극극장	126.87398673359102	37.553678216654255
472865	1123109	413291437	용왕산근린공원 야외무대	공연장,연극극장	126.87718267826178	37.54263895002158
482563	1125421	8016441	KT&G상상마당 홍대	공연장,연극극장	126.92106853325421	37.551008875560804
482362	1124731	7854938	롤링홀	공연장,연극극장	126.9201613267943	37.548521510359365
484217	1126303	397903247	구름아래소극장	공연장,연극극장	126.92855259799046	37.55419236186185
485986	1128786	27235510	금호아트홀연세	공연장,연극극장	126.93655301794489	37.563145634224476
484558	1126550	7910244	산울림소극장	공연장,연극극장	126.9300954240502	37.55508347098211
480991	1125559	994995865	신한카드FAN스퀘어 라이브홀	공연장,연극극장	126.91395205031846	37.551501254838236
487756	1129060	12143674	스튜디오리움	공연장,연극극장	126.94456578037064	37.56413716025628
484452	1126287	10880392	포스트극장	공연장,연극극장	126.92961646314316	37.55413533697165
481776	1125602	20849833	프리즘홀	공연장,연극극장	126.91750533182116	37.5516587624689
484229	1129476	1848264639	연희예술극장	공연장,연극극장	126.92859600823256	37.565627839266924
482858	1125733	26859800	윤형빈소극장 홍대점	공연장,연극극장	126.92240273268256	37.55213420543277
482818	1126012	465010071	정태호소극장 comedy maker	공연장,연극극장	126.92222061853656	37.55313959922192
482066	1125816	2136641458	벨로주 홍대	공연장,연극극장	126.91881723843336	37.55243092597863
482258	1125475	1056742428	제이디비 스퀘어	공연장,연극극장	126.91968769267588	37.55120256001728
480099	1127776	15248078	성미산마을극장	공연장,연극극장	126.9099046238287	37.55948828041528
484282	1126463	21005364	네스트나다	공연장,연극극장	126.92884629531395	37.55476917768734
483750	1126090	1774560682	별빛소극장	공연장,연극극장	126.92643931134477	37.55342341414033
484607	1123543	17158968	CJ아지트 광흥창	공연장,연극극장	126.93032733076325	37.544246399817354
482142	1124782	612943766	얼라이브홀	공연장,연극극장	126.91916529588728	37.5487046363868
481861	1125321	25691647	폼텍 웍스홀	공연장,연극극장	126.91789121234874	37.55064630961364
481388	1125206	26490207	드림홀	공연장,연극극장	126.91575057854776	37.55023034250374
481546	1125397	452342282	서울생활문화센터 서교스퀘어	공연장,연극극장	126.91646501530992	37.55091921267771
486348	1127245	1987121086	1M스페이스	공연장,연극극장	126.93819652340909	37.55759276198962
482570	1125397	8634325	KT&G상상마당 라이브홀	공연장,연극극장	126.92110031106381	37.55092240098065
486511	1129110	8504308	연세대학교 대강당	공연장,연극극장	126.9389289484292	37.564314578262795
480963	1125796	15299361	라디오가가	공연장,연극극장	126.91382431953568	37.552355307713086
483002	1127146	1666527949	다리소극장	공연장,연극극장	126.92304934573392	37.55722706676558
485831	1127681	262633545	신촌극장	공연장,연극극장	126.93585468568043	37.55916285179351
483651	1125390	19155949	홍익대학교 현대미술관	공연장,연극극장	126.92599365192372	37.55090034138497
482102	1125841	1120618407	플렉스라운지	공연장,연극극장	126.91898010380326	37.55252113763072
484073	1126705	219646128	팟빵홀	공연장,연극극장	126.92789933507184	37.55564076880672
483214	1125418	23696074	공공일	공연장,연극극장	126.92401540106674	37.550999996712356
484090	1120241	14735483	여의도 물빛무대	공연장,연극극장	126.92799870122327	37.532344593800104
482664	1124719	22650511	베짱이홀	공연장,연극극장	126.92152837850547	37.548479178837916
486643	1125724	1502697518	서강대학교 메리홀 대극장	공연장,연극극장	126.93953643557214	37.552111786324275
483883	1128441	24063521	채널1969	공연장,연극극장	126.92703311523805	37.56189675947784
484987	1126909	12729676	긱라이브하우스	공연장,연극극장	126.93203629302484	37.55637843643405
484318	1126529	1964441344	우주정거장	공연장,연극극장	126.92900903770985	37.55500713900115
478854	1127210	10832358	벨로주 망원	공연장,연극극장	126.90427090348125	37.5574439901415
486654	1129414	11311599	연세대학교 노천극장	공연장,연극극장	126.9395754914746	37.56541052216054
485440	1127510	1625893519	디앤디공연장	공연장,연극극장	126.93408511050141	37.55854559521444
482584	1126027	25080914	홍대난타전용극장	공연장,연극극장	126.92116129261136	37.55319295652779
485641	1126949	108835601	몽향라이브홀	공연장,연극극장	126.934996817742	37.556524263014886
487983	1125119	18376586	마포아트센터 아트홀맥	공연장,연극극장	126.94560383898151	37.54993432170443
478141	1120127	1454559240	라센느아트홀	공연장,연극극장	126.90107685409404	37.53191425519171
483490	1128740	1686035596	내츄럴리뮤직 홍대연트럴파크점	공연장,연극극장	126.92525280159815	37.562973237452454
487853	1128295	17807847	이화여자대학교 대강당	공연장,연극극장	126.94500697039669	37.561380317541605
483805	1126891	1207259355	고인물	공연장,연극극장	126.92668545778636	37.556310363359984
482171	1125553	11394126	홍대앞	공연장,연극극장	126.9192935689952	37.551483402677775
482847	1127235	8275621	라이브앤라우드	공연장,연극극장	126.92234732201082	37.55754736212502
493987	1129535	8060966	국립정동극장	공연장,연극극장	126.97277575591647	37.565858928153446
493988	1125581	26928421	동자아트홀	공연장,연극극장	126.972785466779	37.55160876000292
497862	1120376	13314714	용산아트홀	공연장,연극극장	126.99032433491864	37.53285268680348
492958	1125906	1898601334	국립극단 백성희장민호극장	공연장,연극극장	126.96812246532265	37.5527788907307
494678	1129786	11731415	세실극장	공연장,연극극장	126.9759040111904	37.56676420801284
497346	1128867	7926624	삼일로창고극장	공연장,연극극장	126.98798423055364	37.56345399364372
492861	1129532	16761236	NH아트홀	공연장,연극극장	126.9676777238807	37.56584683055487
492870	1127583	17358734	가톨릭 성음악아카데미 최양업홀	공연장,연극극장	126.96772150255103	37.55882267339295
490619	1126542	1591847891	서울마포음악창작소	공연장,연극극장	126.95753304524037	37.55506769543241
498167	1127260	11475320	서울문화재단 남산창작센터(운영종료)	공연장,연극극장	126.99170188367427	37.55766270564836
488503	1127141	633015302	한예진아트홀	공연장,연극극장	126.94795260281563	37.55722265085478
495884	1129390	17434294	롯데호텔서울 크리스탈볼룸	공연장,연극극장	126.98136467504402	37.565338018561626
495265	1129817	748166001	서울시민청 바스락홀	공연장,연극극장	126.97856169139773	37.566876444019194
496411	1128871	12526895	명동난타극장	공연장,연극극장	126.98375109099746	37.563467902876106
493776	1120018	2030021920	펀타스틱씨어터	공연장,연극극장	126.9718333493271	37.53155949055331
489528	1128929	8114729	추계예술대학교 콘서트홀	공연장,연극극장	126.95258873587335	37.56366853263274
492524	1128987	17201964	KT&G상상유니브 아틀리에서울	공연장,연극극장	126.96615282389105	37.563882231589545
493729	1123992	17074544	정가악회	공연장,연극극장	126.97161522274101	37.545881737115614
491064	1120360	816684329	용산전자랜드 다목적홀	공연장,연극극장	126.95955955692175	37.53278849500654
491684	1127917	14709639	구세군아트홀	공연장,연극극장	126.96235171162911	37.56002481522643
493726	1126767	139067352	문화역서울284 RTO공연장	공연장,연극극장	126.97159784886928	37.55588281423421
497859	1120374	18959688	용산아트홀 대극장미르	공연장,연극극장	126.99031075914631	37.53284547768165
493995	1129545	286548081	정동극장 야외마당	공연장,연극극장	126.97281196332872	37.56589497633806
495494	1128013	1056662001	신세계 메사홀	공연장,연극극장	126.97960029056172	37.56037503817491
494828	1121597	11163836	전쟁기념관 이병형홀	공연장,연극극장	126.9765923859984	37.53725125103669
493417	1123509	660317909	코리아블루스씨어터	공연장,연극극장	126.97020369273086	37.54414065890121
497270	1127225	11269491	숭의여자대학교 숭의음악당	공연장,연극극장	126.98764112425023	37.557536210799235
496947	1129268	7933607	서울YWCA 마루홀	공연장,연극극장	126.98617752348797	37.56489899401519
492327	1129455	27144847	이제홀	공연장,연극극장	126.96526013421412	37.56556863714712
493416	1123508	524993380	한국즉흥극장	공연장,연극극장	126.9701991679155	37.544137053762
497861	1120378	631471849	용산아트홀 소극장가람	공연장,연극극장	126.99031980841876	37.532859894441316
495974	1129222	346533948	롯데백화점 롯데문화홀	공연장,연극극장	126.98177230050196	37.564732612775096
493649	1128979	22399877	중앙엠앤비	공연장,연극극장	126.97124620954976	37.56385475004459
495494	1128013	1919634876	소년24 전용관	공연장,연극극장	126.97960029056172	37.56037503817491
496411	1128860	10883126	펑키하우스	공연장,연극극장	126.98375109960776	37.56342825903517
497173	1122879	22450710	카마라타뮤직컴퍼니	공연장,연극극장	126.98720467713505	37.54187320607051
497137	1121594	19237139	파우와우	공연장,연극극장	126.98704253847892	37.53724204803043
503271	1129578	8096178	충무아트센터	공연장,연극극장	127.01480969401598	37.56601610947798
500563	1122598	14529813	블루스퀘어	공연장,연극극장	127.00254816746242	37.54086114802091
500513	1122555	18192815	블루스퀘어 신한카드홀	공연장,연극극장	127.00232186004041	37.54070618070663
499905	1125916	11330151	국립극장	공연장,연극극장	126.9995699563381	37.55281923295518
503271	1129581	1934809750	충무아트센터 대극장	공연장,연극극장	127.01480969615648	37.56602692142994
500548	1122600	1104690330	블루스퀘어 마스터카드홀	공연장,연극극장	127.00248027691629	37.54086835746538
499940	1125783	8190002	국립극장 해오름극장	공연장,연극극장	126.9997283952162	37.55233990244519
500731	1127441	14920014	동국대학교 서울캠퍼스 이해랑예술극장	공연장,연극극장	127.00330931584226	37.55831527288536
507979	1127734	12439870	소월아트홀	공연장,연극극장	127.03612230008058	37.559365762191284
501198	1121589	26559733	일신홀	공연장,연극극장	127.00542194736879	37.53722461442051
500006	1126005	8215045	국립극장 달오름극장	공연장,연극극장	127.00002716076877	37.55313998903133
503271	1129578	17343787	충무아트센터 중극장 블랙	공연장,연극극장	127.01480969401598	37.56601610947798
499410	1129612	1818696928	푸르지오아트홀	공연장,연극극장	126.99732872702188	37.566139543587035
501544	1129507	1863672858	V.SPACE	공연장,연극극장	127.00699055017354	37.56576094851201
500094	1125927	8191152	국립극장 KB국민은행청소년하늘극장	공연장,연극극장	127.00042551711195	37.5528588768855
501872	1125844	27437901	뮤지컬하우스호연재	공연장,연극극장	127.00847409410481	37.55255944220909
501554	1121181	20375191	더줌아트센터	공연장,연극극장	127.00703300564196	37.53575409657574
501146	1126794	10527133	서울신라호텔 다이너스티홀	공연장,연극극장	127.00518790393534	37.55598342405642
500150	1121424	26647502	언더스테이지	공연장,연극극장	127.00067886948976	37.536630076621876
500116	1126288	8190001	국립극장 별오름극장	공연장,연극극장	127.00052511535182	37.55415991751258
499421	1122218	8198505	그랜드하얏트서울 그랜드볼룸	공연장,연극극장	126.99737946363115	37.5394916264657
504933	1129278	119373189	투움아트홀	공연장,연극극장	127.0223341984994	37.56493373050152
500961	1129648	1305263438	노보텔앰배서더 서울동대문호텔&레지던스 그랜드볼룸라온	공연장,연극극장	127.00435101319019	37.56626923705526
500215	1125370	23520899	반얀트리클럽앤스파서울 크리스탈볼룸	공연장,연극극장	127.00097323112067	37.550851449663185
503255	1129548	1707569603	충무아트센터 컨벤션센터	공연장,연극극장	127.01473723153688	37.56590799902201
503264	1129564	8095099	충무아트센터 소극장 블루	공연장,연극극장	127.01477799103264	37.56596565767319
507953	1127718	20382276	성동문화회관	공연장,연극극장	127.03600456590029	37.559308134344406
500549	1122600	546825556	블루스퀘어 카오스홀	공연장,연극극장	127.00248480296904	37.540868357370236
499468	1120976	12684095	스파찌오루체	공연장,연극극장	126.9975923281203	37.53501546086966
499907	1125916	8218713	국립극장 국악관현악단	공연장,연극극장	126.99957900988888	37.55281923298779
499516	1128053	1487206784	필동의 전당	공연장,연극극장	126.99780881520759	37.560520939678845
503271	1129578	8095098	충무아트홀 문화예술원	공연장,연극극장	127.01480969401598	37.56601610947798
502128	1126414	23881833	복장문화회관	공연장,연극극장	127.0096332089819	37.55461362860493
499905	1125910	8829577	국립극장 운영지원부장	공연장,연극극장	126.99956995646235	37.552797609002
507960	1127718	12732849	소월아트심포니오케스트라	공연장,연극극장	127.0360362560695	37.55930812467634
499180	1129644	8190962	국도문화센터	공연장,연극극장	126.99628737759662	37.566254842920685
499905	1125916	10136132	국립극장 무용단	공연장,연극극장	126.9995699563381	37.55281923295518
499908	1125924	9662415	국립극장 공연기획부	공연장,연극극장	126.99958353650382	37.552848064941294
499906	1125912	9669869	국립극장 공연제작부장	공연장,연극극장	126.99957448319545	37.55280481700278
511993	1123407	681937713	우란문화재단	공연장,연극극장	127.05428304832579	37.54376433359579
510349	1123901	18245172	성수아트홀	공연장,연극극장	127.04684304648225	37.54554789379459
515562	1121752	17064649	나루아트센터	공연장,연극극장	127.07043153409847	37.537791187955364
515592	1121692	11032530	광진문화예술회관	공연장,연극극장	127.07056710622317	37.53757486697597
517656	1121723	2097635913	블라인드아트홀	공연장,연극극장	127.079908579028	37.537680639420294
517105	1123287	8170723	건국대학교 새천년관 대공연장	공연장,연극극장	127.07742066043807	37.543318950936474
512906	1121438	2134699964	성수소극장	공연장,연극극장	127.0584099563543	37.536666089516736
516789	1128705	11796983	우인아트홀	공연장,연극극장	127.07601021087032	37.56284629159465
518346	1120875	1821126422	자양스테이션	공연장,연극극장	127.08302803081614	37.534622294203395
517132	1125354	802537545	서울어린이대공원 상상나라극장	공연장,연극극장	127.07755058474268	37.550768323070265
509996	1126675	17580010	한양대학교 노천극장	공연장,연극극장	127.04525129426631	37.55554599188738
517029	1126068	151764464	버금아트센터	공연장,연극극장	127.07708699037492	37.553341876790554
515535	1122467	1176391836	청춘뜨락야외공연장	공연장,연극극장	127.07031175540094	37.540368119254246
512023	1123414	972619672	우란2경	공연장,연극극장	127.05441885343707	37.54378949906998
516351	1125779	1172879110	세종아트홀혼	공연장,연극극장	127.07401678779613	37.552302287789146
515611	1120217	580731405	충동소극장	공연장,연극극장	127.07064808248114	37.53225891497484
508842	1127099	634661538	엔터식스 한양대점 메두사홀	공연장,연극극장	127.04002802387944	37.55707596986002
517181	1126762	1110634896	미라클아트홀	공연장,연극극장	127.07777766378499	37.55584259308171
509062	1123389	17558788	서울숲 야외무대	공연장,연극극장	127.04101664313121	37.54370481491422
513416	1124706	306289370	어쿠스틱블루	공연장,연극극장	127.06072766476873	37.54844278569308
515607	1121738	11475640	나루아트센터 소공연장	공연장,연극극장	127.07063515035482	37.53774061033053
515595	1121695	11475641	나루아트센터 대공연장	공연장,연극극장	127.0705806939646	37.53758567085809
510280	1122250	1582422843	성북동비둘기	공연장,연극극장	127.04652703162112	37.53959781778701
512360	1123178	122346590	뮤직스페이스 성수점	공연장,연극극장	127.05594355646195	37.5429382431591
514766	1121872	655588804	인디스타	공연장,연극극장	127.06682933265532	37.53822576149391
516918	1124308	25977618	어린이회관 무지개극장	공연장,연극극장	127.07657802549434	37.54699918034506
508862	1127134	27477168	개그전용관 엔터식스한양대점	공연장,연극극장	127.04011863214119	37.55720207873359
518646	1127704	18767091	발레 테이먼트	공연장,연극극장	127.08441348045238	37.55923299236235
517190	1122743	17567168	건국대학교 노천극장	공연장,연극극장	127.07780334977494	37.54135812464323
515991	1124321	953378283	설렘아트홀	공연장,연극극장	127.07238207976677	37.547048678875306
517116	1123355	27153862	위니아트	공연장,연극극장	127.0774707021932	37.54356398991777
518091	1124290	17560274	어린이대공원 동물공연장	테마파크시설	127.08188744398575	37.54693074581968
519435	1125395	10684497	유니버설아트센터	공연장,연극극장	127.08797562505931	37.55090877961681
523854	1123964	10341924	예스24라이브홀	공연장,연극극장	127.10797146411336	37.54573487387094
524428	1126521	18080981	비스타워커힐서울 비스타홀	공연장,연극극장	127.11058319659138	37.55494786434738
520304	1120751	17201755	동서울아트홀	공연장,연극극장	127.09188874392385	37.53416883588823
519435	1125398	12435639	유니버설발레단	공연장,연극극장	127.08797563776764	37.550919591584105
524377	1126694	8397665	그랜드워커힐서울 워커힐씨어터	공연장,연극극장	127.11035324430482	37.55557156957937
527943	1123591	588826282	천호근린공원 야외무대	공연장,연극극장	127.12647738464798	37.544372212480035
520304	1120750	12817287	아티스트그룹	공연장,연극극장	127.09188873950198	37.53416523188927
528114	1121888	1907671390	하나은행365 나비상가 1층 공연장	ATM	127.12724094328951	37.53823378541786
534732	1125527	13115285	강동아트센터	공연장,연극극장	127.15722074666593	37.55131260991034
534733	1125525	20244806	강동아트센터 대극장한강	공연장,연극극장	127.15722525819183	37.55130539592392
529459	1128886	7986821	암사어린이극장	공연장,연극극장	127.13337318776695	37.56344774689411
534734	1125529	20244808	강동아트센터 소극장드림	공연장,연극극장	127.15722981514203	37.55131980581437
531174	1123969	21659208	강동구민회관 대강당	공연장,연극극장	127.14110427160055	37.545717949831094
545855	1123687	11226910	하남문화예술회관	공연장,연극극장	127.20755238590274	37.544603525525325
545692	1123726	8128265	하남문화예술회관 대극장	공연장,연극극장	127.20681499561213	37.54474537496409
541475	1128550	1429323436	미사호수공원 공연장	공연장,연극극장	127.18777136654933	37.562162825062124
546775	1122648	419618505	소극장 하남단막극장	공연장,연극극장	127.21170594552086	37.54085160422774
545757	1123534	17574770	하남문화예술회관 소극장	공연장,연극극장	127.2071072880931	37.54405289635856
546620	1121133	1958282249	한홀소극장	공연장,연극극장	127.21098902747808	37.535392835172296
547721	1122711	10861260	하남현대아트홀	공연장,연극극장	127.21598821532169	37.54107090094269
545873	1123661	9540769	하남문화예술회관 경영지원팀	공연장,연극극장	127.2076335984991	37.54450967898396
544610	1122808	555710211	별흐름극장	공연장,연극극장	127.20190866133181	37.54144540118069
545293	1121606	14586874	극단 씨아트	공연장,연극극장	127.20498810001916	37.53710809436037
547726	1122276	21366375	에이치사운드	공연장,연극극장	127.21600632278674	37.539503130781625
628630	1125027	8020605	용문산야외극장	공연장,연극극장	127.58224042326042	37.54817977031844
448532	1138980	27331413	고촌아트홀	공연장,연극극장	126.76687007077092	37.59967135227364
460893	1139760	1184745848	행주아트홀	공연장,연극극장	126.82285362160219	37.60257974473376
464733	1131452	1085559277	호강아트홀	공연장,연극극장	126.84031191684115	37.57266289781242
476920	1132096	23211225	제일라아트홀	공연장,연극극장	126.89549099461473	37.57504560322716
476295	1131269	1138497290	문화비축기지 공연장	공연장,연극극장	126.89266520195466	37.5720625780812
476213	1133258	1781838919	YTN뉴스퀘어 YTN공개홀	공연장,연극극장	126.89228358659663	37.579230539899314
474820	1134759	15375756	(주)씨스퀘어소프트-시너스	공연장,연극극장	126.88596732327181	37.58463417015564
475730	1132643	26522083	디지털공연장	공연장,연극극장	126.89009964369156	37.57701208225289
484074	1140031	10669473	은평문화예술회관	공연장,연극극장	126.92785753800176	37.60366731448224
483148	1132275	312384269	가좌동 마을극장	공연장,연극극장	126.92369143940104	37.575712312338226
479999	1138766	265009605	히든트리	공연장,연극극장	126.90940392861972	37.59909558057694
484886	1133674	1596472592	서대문문화체육회관 대극장	공연장,연극극장	126.93155676195185	37.5807590968862
486101	1131736	724549463	모텔룸	공연장,연극극장	126.93706472396156	37.5737776551607
484886	1133674	1400435680	서대문문화체육회관 소극장	공연장,연극극장	126.93155676195185	37.5807590968862
484802	1133634	25894449	극단로얄씨어터	공연장,연극극장	126.93117650374158	37.5806147168194
484878	1133692	15380049	중앙 문화예술프로그램센터	공연장,연극극장	126.93152047482971	37.58082394738043
484074	1140042	1400083532	은평문화재단	문화예술단체	126.92785749971799	37.60370695802233
494638	1131411	8373453	세종문화회관	공연장,연극극장	126.97572100551207	37.572620640911914
494715	1131478	27151624	세종문화회관 대극장	공연장,연극극장	126.97606958218893	37.57286217874002
492198	1131871	11470744	광화문아트홀	공연장,연극극장	126.9646719684078	37.5742756820271
497940	1132687	26952171	서울돈화문국악당	공연장,연극극장	126.99067180043073	37.57722144574027
494630	1131187	18607961	세종문화회관 M씨어터	공연장,연극극장	126.9756850441857	37.571813341938096
494514	1131454	1847666883	세종문화회관 S씨어터	공연장,연극극장	126.97515948536004	37.57277549523145
494644	1131258	11571750	세종문화회관 체임버홀	공연장,연극극장	126.97574835215447	37.572069237568904
493384	1130186	8118857	경향아트힐	공연장,연극극장	126.97004469545695	37.56820445996883
497571	1133162	11935558	북촌아트홀	공연장,연극극장	126.98900062357019	37.57893319079462
495135	1131225	8030800	KT스퀘어	공연장,연극극장	126.97797160567622	37.57195074199919
493530	1134389	16065155	경복궁아트홀	공연장,연극극장	126.97069980604373	37.58335214397815
492074	1137828	7908205	부암아트홀	공연장,연극극장	126.96410017883994	37.595744372552105
496818	1131742	297684466	인사아트홀	공연장,연극극장	126.98559175777332	37.57381517554727
497926	1137499	23612133	리홀뮤직갤러리	공연장,연극극장	126.99060622584645	37.59456375349354
490422	1139925	17566299	상명아트센터 계당홀	공연장,연극극장	126.95661326586617	37.60329936898912
497541	1133149	7910481	북촌창우극장	공연장,연극극장	126.98886477987344	37.578886326368185
490361	1139829	18332764	상명아트센터	공연장,연극극장	126.95633714837876	37.602953286891754
492492	1136890	1767016860	쌀롱드무지끄	공연장,연극극장	126.96599499528912	37.592364412824864
495874	1130290	910453874	CKL스테이지	공연장,연극극장	126.98131858969244	37.5685815964161
497209	1131098	24941134	남인사마당	공연장,연극극장	126.98736261588799	37.57149441525933
497352	1130418	18294028	시네코아셰프전용관	공연장,연극극장	126.98801049920257	37.569043775421775
496380	1130893	22316655	국립아시아문화전당 아시아예술커뮤니티	공연장,연극극장	126.98360914430623	37.57075513769978
496358	1132185	27112644	북인사마당	공연장,연극극장	126.98350850463343	37.57541146552066
497446	1133136	534290752	북촌나래홀	공연장,연극극장	126.98843459358929	37.578839433314485
490412	1139867	18512054	상명아트센터 대신홀	공연장,연극극장	126.95656808907842	37.60309032262946
493159	1131262	932087275	팡타개라지	공연장,연극극장	126.96902435575231	37.57208208070817
494676	1131472	18583642	세종문화회관 세종예술아카데미	공연장,연극극장	126.97589299763227	37.57284051893378
497394	1130369	7912425	사춤전용관	공연장,연극극장	126.98820069285439	37.56886719945146
496017	1135734	198391424	삼청로146	공연장,연극극장	126.98196132231195	37.58820174439928
495136	1131232	1763422389	KT스퀘어 드림홀	공연장,연극극장	126.97797612618001	37.571975970705445
493384	1134690	1578565612	오르겔하우스	공연장,연극극장	126.97003819233355	37.584436773786
495965	1131884	8079764	전통문화예술공연장	공연장,연극극장	126.9817292097059	37.57432640597444
491776	1140003	15737413	스페이스셀	공연장,연극극장	126.96274651738501	37.6035825732831
495748	1134167	2097433006	모멘트하우스	공연장,연극극장	126.98074449835183	37.582554127716
494063	1131731	471727157	세상에서 제일작은한평극장	공연장,연극극장	126.97311700638605	37.57377335013113
494677	1131447	11238239	세종문화회관 대관안내	공연장,연극극장	126.97589755465566	37.57275042036719
494678	1131439	10587734	세종문화회관 뮤지컬단	공연장,연극극장	126.97590209192676	37.57272158945412
490429	1139852	18512053	상명아트센터 콘서트홀	공연장,연극극장	126.95664512736506	37.60303629153694
497271	1131298	743057672	우리열린극장	공연장,연극극장	126.98764322693246	37.57221524106794
497374	1131461	17672074	아트라운지멋진하늘	공연장,연극극장	126.98810951228332	37.572802737712756
494675	1131452	1780832908	세종문화회관 서비스플라자	공연장,연극극장	126.97588849288391	37.57276843841627
497371	1130387	12163060	MC코어채플린홀	공연장,연극극장	126.98809654436539	37.56893206067832
494678	1131437	10600218	세종문화회관 소년소녀합창단	공연장,연극극장	126.97590209424925	37.57271438149472
494675	1131446	9314636	세종문화회관 화원	공연장,연극극장	126.97588849985536	37.572746814538256
496736	1131535	1351071142	예감	공연장,연극극장	126.98522060544657	37.57306910590066
494675	1131444	10582522	세종문화회관 청소년교향악단	공연장,연극극장	126.97588850217917	37.57273960657891
494675	1131434	9892529	세종문화회관 무용단	공연장,연극극장	126.97588851379821	37.57270356678201
494638	1131420	9282607	세종문화회관 아루비쥬	공연장,연극극장	126.9757209949823	37.57265307672955
500720	1134223	1299291592	예스24스테이지	공연장,연극극장	127.00326058301074	37.58275747572624
500728	1134377	156887847	드림아트센터	공연장,연극극장	127.00329683618588	37.58331248666841
500336	1132537	18664821	홍익대학교 대학로아트센터 대극장	공연장,연극극장	127.00152148175482	37.576681207878245
500221	1131196	7851334	두산아트센터	공연장,연극극장	127.00100067184113	37.571848277515585
500818	1133783	21029856	유니플렉스	공연장,연극극장	127.00370430601666	37.58117171392158
500785	1133902	8080638	틴틴홀	공연장,연극극장	127.00355488619034	37.58160059150572
500682	1134150	2003000361	아트포레스트	공연장,연극극장	127.00308848581686	37.582494390256365
500817	1134089	25779546	티오엠	공연장,연극극장	127.00369983209943	37.58227453025834
500245	1131167	18245163	두산아트센터 연강홀	공연장,연극극장	127.00110934053606	37.57174376110776
500875	1133685	877603827	플러스씨어터	공연장,연극극장	127.00396241131138	37.58081851599545
500914	1133651	27264356	콘텐츠박스	공연장,연극극장	127.00413901486026	37.58069597478228
500629	1134110	10914589	드림시어터	공연장,연극극장	127.00284846603098	37.58235023732939
500798	1134219	17358384	대학로자유극장	공연장,연극극장	127.00361381213945	37.582743049545364
500879	1133548	8046574	아트원씨어터	공연장,연극극장	127.00398049890535	37.580324770784145
500661	1133786	10593353	아르코예술극장	공연장,연극극장	127.00299333329085	37.581182546015704
503105	1136755	1651930712	공감M아트센터	공연장,연극극장	127.01406298073087	37.591881937756014
500868	1132527	7825701	JTN아트홀	공연장,연극극장	127.0039304926353	37.57664511247369
504729	1138375	7989709	미아리고개 예술극장	공연장,연극극장	127.02141997767605	37.5977192575486
500672	1134536	22676315	예그린씨어터	공연장,연극극장	127.00304325672924	37.58388552524108
500467	1134305	10584242	아티스탄홀	공연장,연극극장	127.00211485873025	37.58305302766285
500883	1133548	17151441	아트원씨어터 2관	공연장,연극극장	127.00399861266594	37.58032477017197
500938	1133457	349733822	봄날아트홀	공연장,연극극장	127.00424765824265	37.57999679970692
500568	1133983	8165094	해피씨어터	공연장,연극극장	127.0025722079503	37.58189253894198
500821	1134030	10866532	학전블루소극장	공연장,연극극장	127.0037179357582	37.582061895210195
500128	1134543	20919778	서연아트홀	공연장,연극극장	127.00057966814443	37.58391079085933
500713	1134004	12984482	대학로예술극장	공연장,연극극장	127.00322884881095	37.581968206269075
500735	1134464	10293467	동덕여자대학교 공연예술센터	공연장,연극극장	127.00332855049386	37.583626031466785
499896	1134685	637325434	씨어터쿰	공연장,연극극장	126.99952901640852	37.58442255550965
500619	1133972	1864612213	라온아트홀	공연장,연극극장	127.002803161755	37.58185288996502
499949	1135352	7939503	선돌극장	공연장,연극극장	126.99976902946547	37.58682640562206
500074	1134481	8478869	열린극장	공연장,연극극장	127.00033511964436	37.58368734546669
499629	1136348	788934926	종로 아이들극장	공연장,연극극장	126.99831972189124	37.59041594828493
500567	1134096	1891154905	마루아트홀	공연장,연극극장	127.00256769340184	37.58229978813288
500722	1134145	715701955	컬쳐시어터	공연장,연극극장	127.00326962789168	37.58247636550784
500546	1134148	26235257	파랑씨어터	공연장,연극극장	127.00247259984434	37.582487196815684
500391	1135401	15369930	연우 소극장	공연장,연극극장	127.00177077828126	37.58700298716049
500506	1133977	13146758	공간아울 대학로점	공연장,연극극장	127.00229143811009	37.58187092087971
500485	1134546	8142763	한양레퍼토리	공연장,연극극장	127.00219639914539	37.58392158376794
499989	1134502	21087952	한성아트홀	공연장,연극극장	126.99995018486732	37.58376302937065
500960	1134133	1529594305	JS아트홀	공연장,연극극장	127.00434742515027	37.582433083045395
500557	1133964	18345287	바탕골 소극장	공연장,연극극장	127.00252239175377	37.58182406450306
500612	1134085	1852988870	하마씨어터	공연장,연극극장	127.00277147712265	37.58226013980851
500778	1133792	21363475	유니플렉스 1관	공연장,연극극장	127.00352316788693	37.581204155240236
499557	1134607	7939663	성균소극장	공연장,연극극장	126.9979937985922	37.584141429511995
500454	1134575	14109110	민송아트홀 2관	공연장,연극극장	127.00205601362087	37.58402610151714
500889	1133801	27471995	소극장혜화당	공연장,연극극장	127.00402583240289	37.581236574940704
500960	1133478	1780843633	업스테이지	공연장,연극극장	127.00434728788949	37.58007247956605
500072	1134029	10324769	대학로스타시티	공연장,연극극장	127.00032605525209	37.58205834933611
499625	1134886	16295962	동숭아트센터	공연장,연극극장	126.9983017254014	37.58514694273037
500708	1135567	671936313	소극장공유	공연장,연극극장	127.00320644771533	37.587601216092075
511651	1138645	17561258	경희대학교 서울캠퍼스 평화의전당	공연장,연극극장	127.05277381464573	37.59868247304751
509455	1136430	1363434562	김희수아트센터	공연장,연극극장	127.04282234583809	37.59070371783707
509936	1136636	1473705355	KOCCA 콘텐츠문화광장	공연장,연극극장	127.04500127436349	37.5914453247291
511628	1135554	27224183	새힘아트홀	공연장,연극극장	127.05266178456768	37.587542660672675
512118	1136682	309943977	르네아트홀	공연장,연극극장	127.05488391855889	37.59160692569926
518753	1131722	8089004	중랑구민회관 대극장	공연장,연극극장	127.08491432244445	37.57371343614297
510454	1133884	7854664	동원극장	공연장,연극극장	127.04734107287736	37.58152628054412
510594	1133744	1021538292	롯데백화점 청량리점 문화홀	공연장,연극극장	127.0479747407085	37.58102146829135
528676	1137792	18324247	구리아트홀	공연장,연극극장	127.12988397231686	37.59554862467384
528626	1137737	19973676	구리아트홀 코스모스대극장	공연장,연극극장	127.12965716084706	37.595350656044175
528679	1137790	19973677	구리아트홀 유채꽃소극장	공연장,연극극장	127.12989754784005	37.595541401806706
521714	1139692	17362543	희원극단	공연장,연극극장	127.09835962029578	37.60242663427871
529339	1138933	14604985	공연문화댄스국제교류회	공연장,연극극장	127.1328942450513	37.599657394618134
531745	1139791	1284681621	드리미홀	공연장,연극극장	127.1437984093278	37.6027368103362
531794	1138157	1853087166	파스날라이브클럽	공연장,연극극장	127.14400901788714	37.596847682081716
550215	1130285	1859338083	프라움악기박물관 콘서트홀	공연장,연극극장	127.22735904793718	37.56834612798061
551505	1132338	1946353283	힐러리움	공연장,연극극장	127.23322282373162	37.57573364569187
574696	1136872	1670231734	왈츠와닥터만 콘서트홀	공연장,연극극장	127.33830787704603	37.59181960554522
385179	1142686	1463402135	그레이스힐SCG강화수련원 야외공연장	공연장,연극극장	126.47982058480919	37.612111408586706
430478	1142630	1358176550	대중아트홀	공연장,연극극장	126.6850380305316	37.612635743573165
438235	1144343	18386230	김포아트홀	공연장,연극극장	126.72015674406572	37.618897801685485
438809	1140668	1216117879	엠사운드 드림씨어터 김포 스튜디오	공연장,연극극장	126.72280654380906	37.605659558304176
463260	1143769	12624226	티즐	공연장,연극극장	126.833543387057	37.61704355473009
463142	1148720	27376310	화정문화광장 꿈드림공연장	무대장치	126.83296884821831	37.63488586704704
466367	1147728	23210845	배다골테마파크 잉어공연장	관광지부속시설	126.8475909861273	37.63133055297267
481947	1144344	1884236373	연신내인디스테이션	공연장,연극극장	126.91820552404951	37.6192048792983
485640	1141620	18879476	서울프린지네트워크	공연장,연극극장	126.93494629847476	37.60939812513914
481166	1140480	16991160	극단유후	공연장,연극극장	126.91468288552782	37.60527670369303
481778	1143920	1479620076	복합문화공간틈연신내마을공연장	작은도서관	126.91744150974291	37.61767627199852
508508	1144961	11696074	꿈의숲아트센터	공연장,연극극장	127.03854918191982	37.62145056824613
508507	1144973	17565318	꿈의숲아트센터 콘서트홀	공연장,연극극장	127.03854467331557	37.62149381711842
501718	1141575	214086221	고래스튜디오	공연장,연극극장	127.00778287249942	37.609253620370595
508491	1145022	18562297	꿈의숲아트센터 퍼포먼스홀	공연장,연극극장	127.0384722693559	37.621670434291225
506437	1149003	26519582	도란도란 마을극장	공연장,연극극장	127.02917131290342	37.63602040730801
499511	1141834	342348406	국민대학교 대극장	공연장,연극극장	126.9977847076654	37.61018728116897
507617	1142444	623850092	소극장 모꼬지	공연장,연극극장	127.03450792847413	37.61238067009317
506426	1143113	287801814	더켠	공연장,연극극장	127.02911318276583	37.614793170086784
504930	1150120	1903470667	공간명아락	공연장,연극극장	127.0223430690848	37.64004749889216
503837	1143492	18567678	남북사랑나눔예술단	공연장,연극극장	127.01738396045212	37.61616137931877
507479	1143037	27384443	극단키즈샘	공연장,연극극장	127.03388370536894	37.61451799623772
500591	1141190	1508296729	신민요민속보존회	공연장,연극극장	127.00267729465561	37.60786632277884
499756	1140752	1794969974	컬쳐몽땅	이탈리안	126.99889467666478	37.606287813938145
517134	1149103	27513547	나눔아트센터	공연장,연극극장	127.07764851773166	37.63635885663896
513964	1143558	1189664988	로즈아트홀	공연장,연극극장	127.06326565918911	37.61638356173249
512711	1144513	1817730210	광운대학교 동해문화예술관 대극장	공연장,연극극장	127.05759144242948	37.61982824129483
513258	1144590	17565906	광운대학교 노천극장	공연장,연극극장	127.06007003116912	37.62010450978325
513966	1143560	26431950	노방극장	공연장,연극극장	127.0632747265436	37.61639076477638
534378	1142855	345019540	다산아트홀	공연장,연극극장	127.15574835036124	37.613764163023134
538796	1140644	17579518	남양주체육문화센터 야외공연장	공연장,연극극장	127.17574511562982	37.60576773711001
547678	1148947	617745551	남양주시청 다산홀	공연장,연극극장	127.21606674584645	37.635624352033744
575665	1142944	8269030	두물워크샵	공연장,연극극장	127.34279692891019	37.6136898074382
576935	1142735	1347713650	야외공연장	공연장,연극극장	127.34854699531036	37.612919741208344
358487	1158157	1737258116	해뜨는집	카페	126.35842346900465	37.66726949222643
420455	1153461	554612526	괜찮은홀 김포한강점	공연장,연극극장	126.63944213554416	37.65153935737824
420458	1153468	1787301103	극단리틀드럼	공연장,연극극장	126.63945561159251	37.651564625959985
445116	1158003	898697208	현대백화점 킨텍스점 문화홀	공연장,연극극장	126.75116855398862	37.66819692592289
445155	1160130	1661560163	아지트라이브홀	공연장,연극극장	126.75131979036775	37.675862762559255
450254	1156123	10159904	고양아람누리	공연장,연극극장	126.77448339089626	37.66146844417336
450223	1156071	14491177	고양아람누리 아람극장	공연장,연극극장	126.77434342494783	37.66128077273248
450221	1155952	8177859	고양아람누리 아람음악당	공연장,연극극장	126.7743356565049	37.66085189153855
450067	1156164	17571790	고양아람누리 새라새극장	공연장,연극극장	126.77363520965275	37.66161458019513
450405	1156238	8665315	고양아람누리 노루목야외극장	공연장,연극극장	126.77516667370809	37.66188419914022
452257	1151766	1579683937	알미공원 야외공연장	공연장,연극극장	126.78360922414195	37.645783241911474
449734	1155847	1353139181	롯데백화점 일산점문화홀	공연장,연극극장	126.77212910022388	37.66046923810317
448838	1155867	17912185	아트잉글리쉬뮤지컬극장	공연장,연극극장	126.768067068696	37.660533399592026
457129	1156919	15474847	소극장	공연장,연극극장	126.80564259529088	37.664392619922495
448517	1156674	443479148	나가수 공연장	주류도매,주류유통	126.76660278346398	37.6634388729865
463705	1152974	8177862	고양어울림누리 어울림극장	공연장,연극극장	126.83548640639376	37.65022053710052
463142	1155113	11585195	고양시문예회관	공연장,연극극장	126.83291724598485	37.65792572464653
463552	1153072	11796499	고양어울림누리 별모래극장	공연장,연극극장	126.83479212672663	37.650572751865305
463342	1153000	8742120	고양시립합창단	공연장,연극극장	126.8338408413735	37.650311932973054
463641	1154386	24868278	더뮤지트	공연장,연극극장	126.83518506957813	37.655308861670065
478561	1151995	2132935627	파인트리아트홀	공연장,연극극장	126.90282836672172	37.64676697730474
506957	1157912	1176460796	흰고무신	공연장,연극극장	127.03154143503481	37.66812722132211
507435	1152468	26773515	그린트리예술창작센터	공연장,연극극장	127.03369970730138	37.64850684344073
508490	1154045	186294146	도봉구민회관 대강당	공연장,연극극장	127.03848450749783	37.65418877982577
508482	1154035	129848038	도봉구민회관 소공연장	공연장,연극극장	127.03844822554736	37.65415275235723
506135	1150644	14501772	스마트페이	공연장,연극극장	127.02780490792126	37.64193480168319
517717	1152940	8858338	노원문화예술회관	공연장,연극극장	127.08030546207775	37.65018538021395
510780	1154039	27609245	플랫폼창동61	공연장,연극극장	127.04886488153686	37.6541633131225
514057	1154100	289394948	노원어린이극장	공연장,연극극장	127.06371944198567	37.65437606440574
517712	1152944	8224283	노원문화예술회관 대공연장	공연장,연극극장	127.08028281422465	37.6501998113554
514038	1154408	12294161	노원 문화의거리 야외무대	공연장,연극극장	127.063634263569	37.6554861205486
511377	1153685	26585443	창동극장	공연장,연극극장	127.05157015171521	37.652886370229744
508890	1154952	1741777164	반디극장	공연장,연극극장	127.04029944250581	37.65745693728594
514000	1154112	18484529	노원 어울림극장	공연장,연극극장	127.06346110174452	37.65441945081856
517714	1152953	10277896	노원문화예술회관 소공연장	공연장,연극극장	127.08029191449488	37.65023224054691
511231	1155172	17912174	서울창동 문화체육센터 소극장	공연장,연극극장	127.05091201588756	37.65824569840719
514975	1154472	26327056	성민아트홀	공연장,연극극장	127.06788189253848	37.65571440419409
517705	1158470	15199670	현음악	공연장,연극극장	127.08027252598819	37.670115111045334
511442	1154861	1456728529	공중전화 창동문화센터 공연장2층	공중전화	127.05186773437622	37.65712446056422
580724	1152186	11810043	북한강야외공연장	공연장,연극극장	127.36587933890056	37.646927981967856
423838	1167810	473538532	캠프원	공연장,연극극장	126.65453648577154	37.70329687513145
418090	1169889	1216555715	드림씨어터 호리존 스튜디오	공연장,연극극장	126.62842719124825	37.710709952279764
430829	1170094	14829777	보림인형극장	공연장,연극극장	126.68621182904828	37.7116166940329
430806	1170074	14613838	보림출판사 소극장	공연장,연극극장	126.68610779704183	37.71154433949398
431177	1170706	15650445	판타스틱	공연장,연극극장	126.68778122473408	37.713826435311866
445680	1162058	802365687	하비소극장	공연장,연극극장	126.75367727200421	37.682816040894735
447565	1165450	24371558	MOON컴퍼니	공연장,연극극장	126.76218600515438	37.69505793743503
448606	1167399	8490216	예담아트홀	공연장,연극극장	126.76688533364683	37.702091312945115
449126	1161621	26556603	(사단)문화마을들소리	공연장,연극극장	126.7693084672421	37.681272745989126
468056	1164255	17582069	쥬라리움 일산점 동물공연장	공연장,연극극장	126.85512902104517	37.69090208341525
511680	1163497	27597339	중랑천 야외음악당	공연장,연극극장	127.05296873018331	37.68824741067506
614765	1162568	18142894	청심평화월드센터	공연장,연극극장	127.52042544656993	37.68376298072671
697466	1164653	8626651	홍천문화예술회관	공연장,연극극장	127.89550721500426	37.68902517622115
695493	1165086	529732221	홍천시장열린무대	공연장,연극극장	127.88657923528437	37.690653083806836
384224	1179646	8740835	강화문예회관	공연장,연극극장	126.4745556886051	37.74528735562956
432205	1171227	387320987	대교 트라움벨트	공연장,연극극장	126.6924369716408	37.715716293752436
445141	1173560	19306619	파주시시설관리공단 운정행복센터 공연장	문화시설	126.75109453815233	37.72426257528271
447961	1175291	25706518	솔가람아트홀	공연장,연극극장	126.76386949295996	37.73052716698355
488900	1173808	17570589	가나아트파크 야외공연장	공연장,연극극장	126.94963642604655	37.72540833940175
507532	1176060	8042609	의정부예술의전당	공연장,연극극장	127.0341783672985	37.733530089179325
507538	1175997	18855216	의정부예술의전당 대극장	공연장,연극극장	127.0342054893739	37.73330303678292
507521	1176191	18479302	의정부예술의전당 소극장	공연장,연극극장	127.03412866870491	37.734002212016655
507469	1176492	17264508	의정부시청소년수련관 한울관	공연장,연극극장	127.03389319849428	37.7350870480548
509886	1177673	2086795649	살판마을극장	공연장,연극극장	127.04486374655774	37.73933956437844
510899	1179860	23813272	평화문화회관	공연장,연극극장	127.04946609461136	37.74721939793856
511213	1178829	23818648	스테이지인스카이	공연장,연극극장	127.05088866730222	37.743503198342296
526017	1180799	159047325	우리소극장	공연장,연극극장	127.11808578354798	37.75055465981426
577498	1178788	17562777	아침고요수목원 야외무대	공연장,연극극장	127.35171039859814	37.74284169985196
410955	1182155	2024409176	애기봉평화생태공원 야외공연장	공연장,연극극장	126.59582079793509	37.75480762360079
434412	1190608	19388549	경기영어마을 파주캠프 콘서트홀	공연장,연극극장	126.70216944516535	37.78558766627066
434273	1190582	27446310	경기영어마을파주캠프 어린이소극장	공연장,연극극장	126.70153864049527	37.78549237032656
434944	1190352	19388494	경기 영어마을파주캠프 야외공연장	공연장,연극극장	126.70458886290332	37.784671174512766
451669	1183256	18324440	파주 시민회관 대공연장	공연장,연극극장	126.7806099633997	37.75926431794483
451738	1183213	8575080	파주 시민회관 소공연장	공연장,연극극장	126.78092363161784	37.7591099354874
537119	1187644	20158542	소울	공연장,연극극장	127.16853125901389	37.7751617433576
530570	1188002	17570254	아프리카예술박물관 소공연장	공연장,연극극장	127.1387993592293	37.7764906941325
530635	1187709	17570344	아프리카예술박물관 민속춤공연장	공연장,연극극장	127.13909250467331	37.7754344195963
560455	1182675	17574776	남양주승마장 몽골민속예술공연장	문화시설관리운영	127.27441653662648	37.75705519809388
431022	1192029	27000954	프로방스마술극장	공연장,연극극장	126.68675428050284	37.79066874178373
432971	1192057	17811310	ECO박스소극장	공연장,연극극장	126.69560462877033	37.79079284671257
433795	1191687	12458187	소리삶	공연장,연극극장	126.69935197290509	37.789469049819196
493904	1198152	8431222	양주문화예술회관	공연장,연극극장	126.9723081691617	37.813148200304184
493902	1198153	1034644218	양주문화예술회관 대공연장	공연장,연극극장	126.97229908256986	37.81315180200038
493902	1198155	1666162379	양주문화예술회관 소공연장	공연장,연극극장	126.97229907987688	37.81315900966491
612968	1201477	1484635813	뮤직빌리지 M스테이션	공연장,연극극장	127.51324458210938	37.82401596797106
639635	1198945	205692249	강촌천 수변공연장	공연장,연극극장	127.63431580903506	37.81430141887747
658423	1200093	1340250721	아트팩토리봄	공연장,연극극장	127.71969784625692	37.81794780591841
671677	1194858	17567442	한국폴리텍대학 춘천캠퍼스 야외무대	공연장,연극극장	127.77970595749616	37.79870022019267
454024	1210291	13493357	문산행복센터 대공연장	공연장,연극극장	126.79102561827776	37.85671278636667
454023	1210212	1336139479	문산행복센터 소공연장	공연장,연극극장	126.79102187674852	37.856428079520285
492857	1204527	1052934825	필룩스조명박물관 소극장	공연장,연극극장	126.96754198280938	37.83612137106929
618623	1206974	899209858	야외공연장	공연장,연극극장	127.53907990374232	37.843710536724984
663637	1209245	18522033	루도스 디지털문화콘텐츠연구소	공연장,연극극장	127.74371367508036	37.8507800809693
443576	1220167	21126810	임진각 평화누리 야외공연장	공연장,연극극장	126.74341337950939	37.892209655799824
546692	1221233	8126889	포천반월아트홀	공연장,연극극장	127.21234195579522	37.896139407074564
546693	1221238	1889600135	포천반월아트홀 대극장	공연장,연극극장	127.2123465552453	37.89615741765566
546684	1221243	10022781	포천시립민속예술단	공연장,연극극장	127.21230567780265	37.89617551026712
545890	1220832	26000820	한내소극장	공연장,연극극장	127.20869063017201	37.89470082278208
546692	1221240	1322248117	포천반월아트홀 소극장	공연장,연극극장	127.21234202826162	37.89616463337323
660415	1215296	18164834	춘천문화예술회관	공연장,연극극장	127.72928595122522	37.87267649150206
660081	1215399	12973384	축제극장몸짓	공연장,연극극장	127.72777126944202	37.87305704801693
655325	1215772	17566288	의암공원 춘천시야외공연장	공연장,연극극장	127.7061635788264	37.87453282684015
654299	1215133	11248841	강원국악예술회관	공연장,연극극장	127.70147749937716	37.87225805903731
660895	1218036	8373834	봄내극장	공연장,연극극장	127.7315656367899	37.88253654099195
659988	1212613	18259126	KT&G상상유니브 춘천아틀리에	공연장,연극극장	127.7272498136607	37.86302028762363
660415	1215274	17157422	춘천문화예술회관 대공연장	공연장,연극극장	127.72928516969624	37.87259721442488
654431	1215511	631633980	KT&G상상마당 춘천 사운드홀	공연장,연극극장	127.70209048665811	37.87361661454918
660056	1217628	24572572	갤러리4F	공연장,연극극장	127.72773664439447	37.88108995658738
660034	1218201	8827615	굴레	공연장,연극극장	127.7276569395034	37.883155379785144
663840	1215507	135478602	소극장연극바보들	공연장,연극극장	127.74486329991474	37.87333935176664
665953	1217563	15760869	극단ART3 씨어터	공연장,연극극장	127.75454441357915	37.88068694220288
665412	1213107	19883829	핸드아트	공연장,연극극장	127.75192159877945	37.864645552305774
510861	1225373	23796825	동두천문화회관	공연장,연극극장	127.04940286425712	37.91124019749
512837	1231652	1490390574	동양대학교 북서울(동두천)캠퍼스 야외공연장	광장	127.05840888289333	37.93386411375697
658302	1228844	10835623	춘천인형극장	공연장,연극극장	127.72015595344345	37.921555764074434
658297	1228697	11235472	춘천인형극장 물의나라꿈의나라	공연장,연극극장	127.72012804331683	37.9210261915598
658323	1228850	8104560	춘천인형극장 하늘극장	공연장,연극극장	127.72025169169945	37.921576800333874
658602	1229075	1608942141	인형극장	공연장,연극극장	127.7215287631988	37.922379808684326
658309	1228850	10837558	춘천인형극장 코코극장	공연장,연극극장	127.72018800676022	37.92157719009256
658318	1228850	18315852	춘천인형극장 바우극장	공연장,연극극장	127.72022894707845	37.92157693953737
657358	1229470	8041962	위도 야외무대	공연장,연극극장	127.71588363576606	37.923837744901725
658310	1228846	8095778	춘천인형극장 꼭두각시극장	공연장,연극극장	127.72019241511288	37.92156274833088
672839	1230077	26282606	춘천농촌문화회관	공연장,연극극장	127.78633027635013	37.92557553808097
514166	1234990	7953761	소요산 특설무대	공연장,연극극장	127.06446639150421	37.94589028319837
528807	1240379	17579124	허브아일랜드 공연장	공연장,연극극장	127.13112880586692	37.965255446149044
533123	1242988	17556599	유식물원 공연장	관광지부속시설	127.15079431101204	37.97463402297184
552670	1245160	17583248	백로주유원지 공연장	관광,명소	127.23980800542516	37.98231352437234
706907	1267221	19700193	문화예술쉼터	공연장,연극극장	127.94301675138149	38.05827646577907
755586	1268434	185844602	인제하늘내린센터 대공연장	공연장,연극극장	128.16491130577424	38.06065775481546
755588	1268571	1652918093	인제하늘내린센터 다목적공연장	공연장,연극극장	128.16492824606044	38.061151266414754
755589	1268588	1733094515	하늘내린센터 공연장	공연장,연극극장	128.16493377420602	38.06121247111876
755590	1268572	11344966	인제하늘내린센터	문화시설	128.16493741712438	38.061154779012696
517543	1280252	12885797	연천수레울아트홀	공연장,연극극장	127.08001157073252	38.108991420948755
517498	1279764	27255143	연천수레울아트홀 대공연장	공연장,연극극장	127.07980441797453	38.107232980288195
517251	1279514	26476239	극단연천	공연장,연극극장	127.07867694163323	38.10633282776113
517486	1279709	27255147	연천수레울아트홀 소공연장	공연장,연극극장	127.07974947326976	38.107034816771524
715731	1281534	689920972	양구문예회관	공연장,연극극장	127.98391935937454	38.10951862503606
511926	1283980	27427645	옥계1리문화복지회관	공연장,연극극장	127.05440306923809	38.122440462683144
653256	1287882	17384922	공연창작집단 뛰다	공연장,연극극장	127.69922116820943	38.134433439757046
653255	1287876	583850087	문화공간 예술텃밭	공연장,연극극장	127.69921639979661	38.13441184671495
563588	1302090	314042926	잔다리컬처컴퍼니	공연장,연극극장	127.29032759000354	38.187355740153954
594727	1314634	23793263	김화문화회관	공연장,연극극장	127.4327652584018	38.23212027681407
764351	1321600	1942945736	DMZ마을극장	공연장,연극극장	128.2080086428018	38.251802676854936
