x	y	ID	NAME	CATE	lat	long
520681	970755	14518767	플레이뱅크 미키와친구들	놀이시설	127.09292827543497	36.993557326018184
532770	971068	1406609751	아쿠아필드 안성(휴업중)	워터테마파크	127.14725118776839	36.99463052546127
543068	970167	17202018	안성팜랜드	테마파크	127.19351655765036	36.99131661869524
542742	969938	2098315670	안성팜랜드 조류관	테마파크시설	127.19204968087398	36.99049360944643
543290	969766	1743363487	안성팜랜드 익싸이팅파크	테마파크시설	127.19451038005681	36.989869658288775
702055	970530	27572022	충주라바랜드	테마파크	127.90785562829461	36.98931108024283
701740	970725	454189825	충주라이트월드	테마파크	127.90644879913661	36.990024652602855
751440	973229	27486107	청풍지구농어촌테마공원	테마파크	128.12985642711612	36.99713312139969
507246	986335	20166047	하나농원 숲속워터파크	워터테마파크	127.03258325968923	37.049744475152416
568992	981814	21606099	안성맞춤랜드	테마파크	127.31016961676528	37.033048507259075
628259	981924	17342173	큰바위얼굴테마파크	테마파크	127.57661178176167	37.03244936287312
505290	1003643	27608340	포시즌애견테마파크	테마파크	127.02380716764677	37.11212944284097
597229	998636	13323756	안성내츄럴리조트 원더풀	워터테마파크	127.43746076125953	37.09327839741579
676507	999495	924612869	오대호아트로봇테마파크	테마파크	127.7941630028231	37.0945220553312
517248	1013888	138410554	오산버드파크	테마파크	127.07766076204639	37.14903193220058
581282	1013246	27318757	용인곤충테마파크	테마파크	127.36596554405315	37.14617847875424
757769	1013939	11634504	제천한방엑스포공원	테마파크	128.16052423777032	37.14355942495484
415196	1018315	15667340	제부비치랜드	테마파크	126.61808537208118	37.16439791780556
415236	1018690	26625219	제부랜드	테마파크	126.61825871092981	37.165750054005265
431976	1023355	8621830	하내테마파크	테마파크	126.69357961225491	37.182782385118806
475247	1019317	26640045	하피랜드 워터파크	워터테마파크	126.88851858158199	37.16857231702597
521720	1027269	167186385	아르티스테마파크	테마파크	127.09785852030502	37.19724508102053
566237	1020420	1125507111	용인농촌테마파크	테마파크	127.29832918359818	37.17222468284033
566195	1020452	17582885	용인농촌테마파크 방문자센터	테마파크시설	127.29814047251017	37.17234049254809
566251	1020285	17581805	용인농촌테마파크 작물학습포	테마파크시설	127.2983903250662	37.17173796034393
752964	1018191	26084214	제천승마놀이동산	테마파크	128.13912500353203	37.159091426527425
752969	1018178	956124109	제천캠핑랜드	글램핑장	128.13914681203758	37.159044364383476
768341	1022822	10800908	의림지파크랜드	테마파크	128.20862144923623	37.17509314442703
509251	1032111	1559624738	실내놀이동산	놀이시설	127.04168960130585	37.21472971690014
534833	1037229	20401631	로만바스	워터테마파크	127.15701278559807	37.23307923096355
526542	1044015	17576648	한국민속촌 놀이마을	테마파크시설	127.11967913590509	37.257580794489556
526065	1044035	19197283	한국 민속촌 세계민속관	테마파크시설	127.11752843645633	37.25765503226332
524452	1046915	710341599	경기뮤지엄파크	테마파크	127.11027048094975	37.268042016873935
526739	1044068	17580825	한국민속촌 충현서원	테마파크시설	127.12056772089993	37.257770914017264
527535	1044750	17579944	한국민속촌 장터	테마파크시설	127.12416095854182	37.26022524409918
526815	1044762	17576602	한국민속촌 야외공연장	테마파크시설	127.12091440679559	37.260271854158546
527116	1044433	17573786	한국민속촌 전통민속관	테마파크시설	127.12226975882943	37.259084690616454
527167	1044877	17580553	한국민속촌 전통혼례식장	테마파크시설	127.12250231590552	37.260684701257496
526965	1045008	19197315	한국민속촌 너와집	테마파크시설	127.12159221182824	37.26115778546589
526557	1044592	17581604	한국민속촌 중부지방민가한약방	테마파크시설	127.11975006352635	37.25966032877826
526547	1044681	17583002	한국민속촌 남부지방농가목기공방	테마파크시설	127.11970547952669	37.25998114491381
526063	1044224	17575375	한국민속촌 양반장	테마파크시설	127.11752047660896	37.25833622835239
527267	1044460	17581809	한국민속촌 제주도민가	테마파크시설	127.12295079525863	37.25918129793918
527490	1044740	17575497	한국민속촌 도깨비집	테마파크시설	127.12395798568896	37.2601894150884
527361	1044752	17577432	한국민속촌 북부지방농가악기공방	테마파크시설	127.12337637030203	37.260233272607145
526252	1043680	17583355	한국민속촌 조각광장	테마파크시설	127.11836962550073	37.256374713631274
527310	1044552	17576068	한국민속촌 울릉도민가	테마파크시설	127.12314522779216	37.259512679448385
527399	1044482	17580430	한국민속촌 중부지방민가짚신공방	테마파크시설	127.12354613034445	37.259259969952254
526896	1044761	19197319	한국민속촌 승마체험장	테마파크시설	127.12127964610174	37.26026787642767
526140	1043912	17583301	한국민속촌 볼케노광장	테마파크시설	127.11786592398207	37.25721138379624
526123	1044427	19197293	한국 민속촌 한국관	테마파크시설	127.11779216091836	37.25906760486054
526285	1044507	17581591	한국민속촌 서낭당	테마파크시설	127.11852309130985	37.2593552089915
526427	1044537	17581810	한국민속촌 북부지방농가무명베틀	테마파크시설	127.11916356013283	37.25946269120671
526437	1044380	17575388	한국민속촌 대장간	테마파크시설	127.11920775990664	37.25889679209796
526568	1044557	19197286	한국 민속촌 민속반점	테마파크시설	127.1197994645291	37.259534132879764
526947	1044896	17581603	한국민속촌 남부지방민가동고리공방	테마파크시설	127.12151039683488	37.260754202603415
527180	1044980	17577208	한국민속촌 양반가	테마파크시설	127.12256153731813	37.2610558693113
526569	1044541	19197318	한국민속촌 내자원사극촬영체험	테마파크시설	127.11980388235148	37.25947646170072
526189	1044489	17573731	한국민속촌 옹기생활관	테마파크시설	127.11809011216693	37.259290766578154
527012	1045017	19197316	한국민속촌 굴피귀틀집전통연만들기체험	테마파크시설	127.1218041988746	37.26119000508398
526559	1044416	19197312	한국민속촌 남부지방농가온돌방체험	테마파크시설	127.11975807758023	37.25902598685683
526366	1044354	19197296	한국민속촌 농기구전시장	테마파크시설	127.11888746532529	37.258803405729594
526742	1044230	17577262	한국민속촌 그네터	테마파크시설	127.12058217874483	37.258354774859825
526951	1044646	17582776	한국민속촌 남부지방민가서당	테마파크시설	127.12152698609947	37.25985314338739
527484	1044778	19197321	한국민속촌 탈춤전시관	테마파크시설	127.12393115492294	37.26032640158639
526312	1044344	19197299	한국민속촌 옛날농방	테마파크시설	127.11864391677851	37.258767608331034
526919	1045008	17583014	한국민속촌 남부지방민가점술집	테마파크시설	127.12138478626636	37.26115799830572
526472	1044632	19197302	한국민속촌 남부지방민가죽기공방	테마파크시설	127.11936701222221	37.25980488234589
526288	1044579	19197300	한국민속촌 낙화집	테마파크시설	127.11853702539179	37.25961469523633
526473	1044452	19197311	한국민속촌 중부지방민가가마니짜기체험	테마파크시설	127.11937049761694	37.25915612835124
526619	1044567	19197303	한국민속촌 효열문	테마파크시설	127.12002948861436	37.25956994160587
527153	1044552	17577441	한국민속촌 통방아	테마파크시설	127.12243729075989	37.259513413642246
576440	1041552	13720973	스타독	테마파크	127.3446286437503	37.24826268791552
587138	1039903	527614700	별빛정원 우주	테마파크	127.3928286026704	37.242169339460816
589984	1046126	1279576536	마장키즈파크	테마파크	127.40577869509914	37.26455430234306
636773	1040660	1016273103	여주팔도한마당 (2023년3월예정)	테마파크	127.61660170943348	37.243943900231514
636194	1038759	27402531	반려동물테마파크 (2022년3월예정)	테마파크	127.61393602002191	37.23710630542053
386302	1050957	375852900	대관랜드	테마파크	126.48716953114392	37.28155051765414
405682	1052172	18059240	대부바다향기테마파크	테마파크	126.57455520145577	37.2862758654887
405837	1049371	18118857	대부바다향기테마파크 화훼단지	테마파크시설	126.57531107628105	37.27618340741582
405094	1049379	18118860	대부 바다향기테마파크 유보지	테마파크시설	126.57195995923036	37.27620017080894
406477	1052305	18118850	대부바다향기테마파크 진입광장	테마파크시설	126.57813848162783	37.2867680396249
406660	1051027	18118877	대부 바다향기테마파크 기존염생식물군락지1	테마파크시설	126.57898959384947	37.2821649917386
407545	1051975	18118892	대부 바다향기테마파크 갯벌	테마파크시설	126.58296243924163	37.28559577121785
407362	1051712	18118887	대부 바다향기테마파크 맨발체험장	테마파크시설	126.58214224066668	37.28464499244106
406882	1052180	18118890	대부바다향기테마파크 기존염생식물군락지2	테마파크시설	126.57996780599808	37.28632402910326
454637	1050836	126357748	화성국제테마파크 (2026년예정)	테마파크	126.79538996251341	37.28204845504814
464615	1057658	1415904871	시아테마파크	테마파크	126.84034364647	37.30670510834102
464634	1057633	1762610441	자이언트제트	테마파크	126.84042956415472	37.30661512074517
470363	1054932	2139062268	옥상놀이동산	놀이시설	126.86629582111964	37.29691238006069
489615	1057733	191228513	레솔레파크	테마파크	126.95314286129499	37.30707383564139
498614	1054985	25102245	수원라이프스포츠 워터파크	워터테마파크	126.99374718458577	37.29717875499552
498613	1054985	12808757	맥스라이더 실내놀이동산	놀이시설	126.99374267317496	37.2971787547571
526302	1048873	1467513788	하이브패밀리테마파크	테마파크	127.11862442806112	37.27509089032699
544822	1053902	784414359	에버랜드	테마파크	127.20219943438913	37.293102915827575
544551	1055013	8004914	캐리비안베이	워터테마파크	127.20098756839623	37.297109183582414
543909	1052763	21555326	에버랜드 홈브리지캐빈호스텔	테마파크시설	127.1980700017622	37.28900477544001
545442	1053341	17579421	에버랜드 사파리월드	테마파크시설	127.20499085450282	37.291076188734806
544961	1053021	17574845	에버랜드 T익스프레스	테마파크시설	127.2028179590428	37.289926605097115
544960	1053900	17573502	에버랜드 판다월드	테마파크시설	127.20282195224155	37.293094642442085
544748	1053778	26303200	에버랜드 스카이웨이	테마파크시설	127.20186441597912	37.29265657368469
548030	1052900	1577681020	에버랜드 리조트지원센터	테마파크시설	127.21666080416892	37.28946597434388
545426	1053929	17573481	에버랜드 타이거밸리	테마파크시설	127.20492442614471	37.29319554121282
543820	1052970	17573506	에버랜드 신관	테마파크시설	127.19767048373308	37.289751501824625
544375	1055490	17580472	캐리비안베이 와일드리버풀	워터테마파크	127.20019812197845	37.29882969730172
543978	1053315	17574815	에버랜드 장미원	테마파크시설	127.19838647701876	37.29099373459188
544446	1054510	1688739521	에버랜드 하늘매화길	테마파크시설	127.20050906170333	37.29529711120451
544615	1053877	17579759	에버랜드 롤링엑스트레인	테마파크시설	127.20126538849021	37.293014404165326
544021	1053924	17581646	에버랜드 썬더폴스	테마파크시설	127.19858621969982	37.29318832439021
545400	1053484	17580464	에버랜드 아마존익스프레스	테마파크시설	127.20480278879057	37.29159190714308
544618	1053661	26584346	애버랜드 시크릿쥬쥬비행기	테마파크시설	127.20127684791845	37.2922358893058
544006	1053582	1175080449	에버랜드 피크닉	테마파크시설	127.19851531377628	37.29195582559367
545443	1054230	17580861	에버랜드 에버마트	테마파크시설	127.20500405931573	37.294280250761304
544237	1053685	17576039	에버랜드 범퍼카	테마파크시설	127.19955835182735	37.29232529864297
544185	1054308	17580275	에버랜드 콜럼버스대탐험	테마파크시설	127.19932969902871	37.294571066175926
544693	1053833	17574820	에버랜드 락스빌	테마파크시설	127.20161683376354	37.29285522365545
545041	1054111	21464716	에버랜드 오리엔탈누들 레스토랑	테마파크시설	127.20318939972167	37.29385448673542
544585	1055534	17582945	캐리비안베이 아쿠아루프	테마파크시설	127.2011459554185	37.29898667246694
544425	1053313	17808409	에버랜드 포시즌스가든	테마파크시설	127.20040288116546	37.290983129489256
544778	1053863	17580467	에버랜드 더블락스핀	테마파크시설	127.20200056844138	37.29296269373366
544610	1054908	17581656	캐리비안베이 파도풀	테마파크시설	127.20125273153022	37.29673029802408
544495	1053593	400261610	에버랜드 글램핑힐	테마파크시설	127.20072133300921	37.29199175076052
544897	1053242	26584371	에버랜드 매직타임레스토랑	테마파크시설	127.20253139328335	37.29072361217113
545256	1053328	26370725	에버랜드 안내및티켓판매소	테마파크시설	127.2041516786235	37.29103078520429
544097	1053839	17580273	에버랜드 플래쉬팡팡	테마파크시설	127.19892826010957	37.29288139768668
544928	1054782	17576044	에버랜드 피크닉에어리어	테마파크시설	127.2026861242411	37.29627373004139
545093	1053653	17573718	에버랜드 애니멀원더스테이지	테마파크시설	127.20341953678192	37.29220339308535
544702	1053514	17579829	에버랜드 비룡열차	테마파크시설	127.20165436521803	37.29170543732541
545445	1053758	17580247	에버랜드 씨라이언스타디움	테마파크시설	127.20500846553044	37.292579086910514
544445	1054160	17579429	에버랜드 레이싱코스터	테마파크시설	127.20050120251841	37.2940356741018
544288	1053125	17580358	에버랜드 홀랜드빌리지	테마파크시설	127.19978308074015	37.290306597704365
547995	1053057	12121045	삼성웰스토리 조리아카데미	테마파크시설	127.21650454337639	37.29003211119765
544513	1055153	21516071	락카카트	테마파크시설	127.20081747739187	37.297614052233165
544923	1053480	17580360	에버랜드 슈팅고스트	테마파크시설	127.20265097987445	37.291581194250696
544803	1053305	17575582	에버랜드 카니발광장	테마파크시설	127.20210796690996	37.29095139714801
544409	1054913	17577138	캐리비안베이 슬라이드빌리지	워터테마파크	127.20034599670362	37.29674985705726
544806	1054173	17576014	에버랜드 키즈커버리	테마파크시설	127.20212986931897	37.2940797578346
545405	1053595	26303157	에버랜드 뿌빠타운	테마파크시설	127.20482642857901	37.291991926392136
544710	1055195	17576550	캐리비안베이 나비오	워터테마파크	127.20170662914644	37.29776391422543
546661	1048483	210068220	수풀로 영문리	테마파크	127.21044102731184	37.27355765882752
544445	1053703	17580265	에버랜드 자동차왕국	테마파크시설	127.20049683141305	37.29238858727147
543807	1053320	17576961	에버랜드 장미의성	테마파크시설	127.19761514066492	37.29101304562462
545441	1053836	308136228	에버랜드 펭귄아일랜드	테마파크시설	127.20499118385477	37.29286024014918
544344	1054865	1867088493	캐리비안베이 튜브라이드	테마파크시설	127.2000523003139	37.29657735498092
600157	1049374	26642988	미란다호텔이천 스파플러스	워터테마파크	127.45172206222631	37.276094150772096
594036	1049254	17384476	토야흙놀이공원	테마파크	127.42411378375813	37.27576378557973
594285	1049430	17384578	토야랜드	테마파크	127.42524034389724	37.27639407182722
606773	1049579	26925208	서희테마파크	테마파크	127.48156492058564	37.276715357657146
646638	1054532	25019533	썬밸리호텔 워터파크	워터테마파크	127.66150983325639	37.293697629071325
564019	1067247	1546189301	화담숲 모노레일 1승강장	테마파크시설	127.28898348568767	37.341019881169814
707185	1066535	14918317	원주한지테마파크	테마파크	127.93515536099767	37.335110750094984
707173	1066489	21352730	원주한지테마파크 카페테리아	테마파크시설	127.93509914906633	37.334945410547974
433840	1070917	477164316	패밀리테마파크	테마파크	126.70129970710174	37.35422281121095
502070	1076851	563859655	바운스 트램폴린 파크 의왕센터	테마파크	127.00934838205026	37.37598633431487
511501	1070893	14819344	코코몽에코파크 용인점	테마파크	127.05192516345392	37.35450203871322
511458	1071284	375372743	다이노스타	테마파크	127.05173199254278	37.35591133137971
572509	1070118	19677776	곤지암도자공원	테마파크	127.32735195271366	37.351267318100284
571756	1069698	26873191	팀업캠퍼스	테마파크	127.32394597543252	37.349762971991915
685428	1074084	25045320	원주레일파크	테마파크	127.83726462831348	37.36305073985782
693252	1077237	82876405	잭슨나인스 원주점(22년예정)	테마파크	127.87272034519502	37.37415782822685
423246	1085506	27477755	송도테마파크 (2025년예정)	테마파크	126.65322846267613	37.40667158356084
524806	1081530	26945013	패밀리가든	테마파크	127.1120520301156	37.39279717586028
600369	1087610	26989624	여주어드벤처파크	테마파크시설	127.45350618634056	37.41389328111243
602142	1084204	1308594108	모이핀란디아	테마파크	127.46144176171332	37.40158717995101
602139	1084201	1476373647	루덴시아	테마파크	127.46142814287089	37.40157642093847
379927	1094009	633734533	파라다이스시티 원더박스	테마파크	126.45730039765127	37.436579665026834
434072	1098040	155113289	미션레이스	테마파크	126.70196021606363	37.45197769035603
432314	1093162	13603554	문학워터파크	워터테마파크	126.69408453525377	37.434377031841464
456208	1096290	1075023989	워너두 칠드런스 뮤지엄	테마파크	126.80204605565058	37.44588062166787
453916	1095257	9208284	아마존놀이동산	놀이시설	126.79169585991951	37.442139847188415
504198	1092890	8360993	서울랜드	테마파크	127.01897326939664	37.43379106267896
504404	1090987	7939405	서울대공원	테마파크	127.01990249052977	37.42693237032748
503364	1092074	12678223	서울대공원 장미원	테마파크시설	127.01520333058103	37.43085068994326
503286	1090546	12631101	서울대공원 산림욕장	테마파크시설	127.0148497280205	37.42534371832455
504583	1092678	17573708	서울랜드 카트라이더범퍼	테마파크시설	127.02071310370535	37.43302670879888
502091	1092306	13705744	과천서울대공원 스카이리프트출발지	테마파크시설	127.00945021348385	37.43168743330835
505431	1093685	1856668202	서울랜드 관리동	테마파크시설	127.02454686815456	37.43665526755169
503074	1093615	1820710591	서울대공원	테마파크	127.01389372520251	37.436404715377606
505070	1092960	1587547045	서울랜드 쥬라기랜드	테마파크시설	127.02291443487356	37.43404264891447
503995	1092558	1036359154	서울랜드 니나노고카트	테마파크시설	127.01805550377465	37.432594656746396
503800	1093241	1814434456	서울랜드 피크닉존	테마파크시설	127.01717475880588	37.43505636433682
504867	1093274	17580823	서울랜드 은하열차888	테마파크시설	127.02199728480966	37.43517449937559
504013	1092460	17580798	서울랜드 급류타기	테마파크시설	127.01813677000854	37.43224144585919
505278	1093158	17577442	서울랜드 블랙홀2000	테마파크시설	127.0238547406531	37.43475606767067
503981	1093220	1814344309	서울랜드 베스트키즈	테마파크시설	127.01799280153193	37.434980557298566
504535	1093098	17576233	서울랜드 착각의집	테마파크시설	127.02049657801278	37.43454045381269
504020	1092540	17575723	서울랜드 킹바이킹	테마파크시설	127.01816847622341	37.43252976625399
504274	1093308	17807358	서울랜드 삼천리대극장	테마파크시설	127.01931714593752	37.435297505932084
504433	1092625	17583361	서울랜드 빅회전목마	테마파크시설	127.02003512013324	37.43283581018753
504313	1092873	17580233	서울랜드 지구별	테마파크시설	127.0194930071681	37.433729709008574
504025	1092575	17573772	서울랜드 사격장	테마파크시설	127.01819110435612	37.43265590507235
504948	1092830	17576232	서울랜드 또봇트레인	테마파크시설	127.02236290280601	37.43357422610656
504448	1092751	1796107448	서울랜드 로맨틱가든	테마파크시설	127.0201030346747	37.433289910894004
504268	1092696	17576353	서울랜드 통나무무대	테마파크시설	127.01928946176324	37.43309182286534
504438	1092948	17575563	서울랜드 베니스무대	테마파크시설	127.02005802846661	37.43399991934798
504775	1092883	17575273	서울랜드 라바트위스터	테마파크시설	127.02158106962693	37.43376538687778
504947	1093226	1533911107	서울랜드 이벤트홀	테마파크시설	127.02235880776041	37.4350014364669
504585	1093157	17582787	서울랜드 출동슈퍼윙스	테마파크시설	127.0207226187408	37.43475305420095
504550	1093448	17577438	서울랜드 샷드롭	테마파크시설	127.02056471777031	37.43580186440621
504090	1093096	17579753	서울랜드 도깨비바람	테마파크시설	127.01848533549965	37.43453357732089
504849	1092932	17581616	서울랜드 캐니멀서커스	테마파크시설	127.02191557117851	37.433941924512744
505083	1093163	17581606	서울랜드 둥실비행선	테마파크시설	127.02297341344423	37.43477426256669
504946	1092959	1248588879	서울랜드 바베큐가든	테마파크시설	127.02235400190351	37.434039152162825
504604	1093248	1487418316	서울랜드 스카이엑스	테마파크시설	127.02080858297967	37.435081008944564
503708	1091250	17583324	과천서울대공원 홍학사	테마파크시설	127.01675734920265	37.427880728115134
504945	1093263	17579867	서울랜드 미래의나라	테마파크시설	127.02234980807287	37.43513478854183
505014	1093000	17573768	서울랜드 록까페	테마파크시설	127.02266138006038	37.43418686028763
504825	1093020	17576164	서울랜드 뭉게공항액션존	테마파크시설	127.02180719264778	37.43425910225283
504143	1092925	17577304	서울랜드 다롱이집	테마파크시설	127.01872472298169	37.433917244583476
504999	1092977	17576349	서울랜드 붕붕카	테마파크시설	127.02259356083259	37.434103979781966
504197	1092893	11138676	서울랜드 다이빙썸머	테마파크시설	127.01896875252815	37.43380187559867
504418	1092558	17579414	서울랜드 운칠기삼	테마파크시설	127.01996726289671	37.43259434927508
504175	1092555	17580799	서울랜드 티키톡열차	테마파크시설	127.01886901558414	37.43258371749009
504211	1093262	17576005	서울랜드 화랑활터	테마파크시설	127.01903236363643	37.43513176518191
504063	1092642	17579422	서울랜드 해적소굴	테마파크시설	127.01836290544006	37.432897350900994
504688	1093168	17579854	서울랜드 타임머신	테마파크시설	127.02118815436529	37.43479261637788
504540	1092735	17582127	서울랜드 깜부비행기	테마파크시설	127.02051881908713	37.43323217440721
504788	1093133	17581545	서울랜드 달나라열차	테마파크시설	127.0216400837691	37.43466639225341
504473	1092690	17582785	서울랜드 피터팬	테마파크시설	127.02021596472012	37.43307004365095
504101	1093184	17576571	서울랜드 분수대	테마파크시설	127.01853512976825	37.43485072718932
730642	1096178	22425600	허스키랜드	테마파크	128.04249442404503	37.44104501549588
745355	1092825	367665442	횡성루지체험장	테마파크	128.10880738706084	37.428357635198786
410730	1103530	18097858	월미테마파크	테마파크	126.59633409599145	37.4714502128003
411300	1104468	7866176	마이랜드	테마파크	126.59889342986429	37.47483949694432
411160	1104514	9323588	월미놀이동산	테마파크	126.59825946854768	37.475003127929085
411375	1105166	27445991	월미문화의거리역	테마파크시설	126.59921914329148	37.47735620534328
446953	1099608	11320114	인천대공원	테마파크	126.7601726047608	37.45776129565217
476344	1103599	9097090	샛별어린이집	어린이집	126.89302953854188	37.47233997191764
527593	1105788	2141690292	워터킹덤 송파파크하비오점	워터테마파크	127.12478632833825	37.480211736996786
603866	1101916	1210579507	R401디스커버리파크	테마파크	127.46962860792117	37.465389583175366
414044	1116906	22440241	인천로봇랜드	테마파크	126.61106928242955	37.51970680958532
413275	1118110	26152117	인천로봇랜드 (2024년 예정)	테마파크	126.60756708624287	37.524034427903594
443438	1111320	17183821	웅진플레이도시	테마파크	126.74413742716247	37.49993804272731
443474	1111520	611505585	웅진플레이도시 워터도시	워터테마파크	126.74429781650724	37.50065919299337
443458	1111329	1961220214	볼베어파크	테마파크	126.74422778724367	37.499970674540165
443589	1113920	7907152	부천영상문화단지	테마파크	126.7447885859621	37.50930988334112
444020	1114404	12543865	프레니월드	테마파크	126.74673258029844	37.51105840788818
443438	1111327	18059593	웅진플레이도시 신기도시	테마파크시설	126.74413734108096	37.49996327064683
455469	1112699	8032094	원더존	테마파크	126.79854688204016	37.50501329785389
469365	1110494	2008661123	어린이대공원아이랜드놀이동산	공원시설물	126.86142526712676	37.497156929008895
521675	1114413	27560699	롯데월드	테마파크	127.0980634971449	37.51132165954965
521713	1114292	16875138	롯데월드 어드벤처	테마파크	127.09823484755479	37.51088543119451
522121	1113690	17384522	매직아일랜드	테마파크	127.10007783869442	37.50871426581978
522097	1113763	17582054	롯데월드 매직캐슬	테마파크시설	127.09996961106582	37.508977450753356
522230	1113693	14652356	롯데월드 자이로드롭	테마파크시설	127.10057098050302	37.508724659037576
522044	1113565	17580828	롯데월드 자이로스윙	테마파크시설	127.09972888336489	37.50826405871514
521924	1113726	14653181	롯데월드매직아일랜드 아트란티스	테마파크시설	127.09918676191268	37.50884476204633
522182	1113862	14652372	롯데월드매직아일랜드 회전그네	테마파크시설	127.10035463889587	37.509333921998085
522259	1113804	17575261	롯데월드 혜성특급	테마파크시설	127.10070271694254	37.50912459275526
522240	1113767	14652366	롯데월드 실내카페	테마파크시설	127.10061657951574	37.50899131751034
522123	1113857	17560374	롯데월드 번지드롭	테마파크시설	127.10008769050883	37.50931612840394
522099	1113763	14652969	롯데월드 매직아일랜드 매직캐슬	테마파크시설	127.09997865930511	37.50897744309531
522233	1113912	14652371	롯데월드 매직아일랜드 어린이왕국	테마파크시설	127.10058561189308	37.509513926406434
522120	1113688	14652367	롯데월드매직아일랜드 한타지드링	테마파크시설	127.10007330496809	37.50870706162533
522185	1113621	14652352	롯데월드매직아일랜드 월드모노레일	테마파크시설	127.10036704837952	37.50846534320921
522254	1113847	24202153	롯데월드매직아일랜드 자이로스핀	테마파크시설	127.10068030444435	37.509279584609516
521686	1114374	13328096	롯데월드 자연생태체험관	테마파크시설	127.0981130800382	37.511181061742114
521831	1114525	265338099	롯데월드 그럴싸진관	테마파크시설	127.09876981380992	37.51172472085224
522302	1113743	8162363	롯데월드 호반무대	테마파크시설	127.1008969585558	37.50890458193016
522112	1113730	17558249	롯데월드 캐슬뮤직쇼	테마파크시설	127.10003731414349	37.50885846085432
522331	1113906	14652971	롯데월드 제네바유람선	테마파크시설	127.10102894963431	37.50949192395223
522182	1113630	17558626	롯데월드 월드모노레일	테마파크시설	127.10035351953597	37.50849779086445
522180	1113863	17562712	롯데월드 회전그네	테마파크시설	127.10034559543816	37.50933753369825
522232	1113913	17558326	롯데월드 어린이왕국	테마파크시설	127.100581092577	37.50951753427195
527055	1117310	17557374	올림픽공원 가족놀이동산	공원시설물	127.12242106481013	37.521739750005814
617850	1114736	23580186	쉬자파크	테마파크	127.53318298866903	37.511323073812335
777010	1110908	1649579194	웰리힐리파크 워터플래닛	워터테마파크	128.25291988064768	37.492085766831245
776285	1110623	12273692	웰리힐리파크 에이프런광장	테마파크시설	128.2496243002575	37.491093592407616
422100	1120830	469969511	쥬라리움 청라점	테마파크	126.64745357931577	37.533963075439544
444550	1120851	27533041	계양워터파크&피크닉장	워터테마파크	126.74905260095484	37.534298358011014
466577	1127002	1068712068	KBS스포츠월드 워터플레이	워터테마파크	126.84869391485805	37.55663621984507
482717	1126122	530818465	아이스뮤지엄	테마파크	126.92176299826558	37.55353573589746
497361	1125429	1792487174	라이언치즈볼 어드벤처	테마파크	126.98805412000674	37.551063484997975
518511	1125551	7996800	서울어린이대공원 놀이동산	테마파크	127.08379362541518	37.55147404421246
517725	1125135	1512054004	서울어린이대공원	테마파크	127.0802340403481	37.54997725572988
517515	1124945	17558625	어린이대공원 꿈마루	테마파크시설	127.07928272922902	37.54929313959599
517993	1125673	17560141	서울어린이대공원 환경공원	테마파크시설	127.08144927880568	37.55191537162994
517280	1125018	7905211	어린이대공원 음악분수	테마파크시설	127.07821926305651	37.54955694037562
517677	1124821	11008180	어린이대공원 능동숲속의무대	테마파크시설	127.08001555386232	37.54884575007331
518218	1125109	17552259	어린이대공원 팔각당	테마파크시설	127.08246555036172	37.54988201451906
518172	1125325	17559106	어린이대공원 맨발공원	테마파크시설	127.08225818259115	37.55066062160314
517967	1124020	17560282	서울어린이대공원 잔디물썰매장	테마파크시설	127.08132511144008	37.54595805575823
518091	1124290	17560274	어린이대공원 동물공연장	테마파크시설	127.08188744398575	37.54693074581968
518020	1124838	17560085	어린이대공원 꼬마동물마을	테마파크시설	127.08156822060032	37.548905955606884
518301	1124397	17558244	어린이대공원 바다동물관	테마파크시설	127.08283841778253	37.54731570994022
517357	1124625	17557965	어린이대공원 생태연못	테마파크시설	127.07856632260285	37.548140340422606
517901	1125166	19195676	어린이대공원 캐릭터월드	테마파크시설	127.08103084272052	37.5500884353974
518370	1124818	17562698	어린이대공원 맹수마을	테마파크시설	127.08315242742846	37.548832770752234
517725	1124530	17556364	어린이대공원 물놀이장	테마파크시설	127.08023170322983	37.54779684114289
518051	1124960	17562625	서울어린이대공원 열대동물관	테마파크시설	127.08170902311802	37.549345545464604
517192	1124628	17560087	어린이대공원 전래동화마을	테마파크시설	127.07781946328792	37.548151646975846
517167	1125085	17560005	어린이대공원 희망마루	테마파크시설	127.07770801088938	37.54979874548668
517905	1125189	1246822817	서울어린이대공원 맘껏놀이터	테마파크시설	127.08104903890018	37.55017131474559
518197	1124955	17556776	어린이 대공원 물새장	테마파크시설	127.08236988114139	37.54932706634419
517175	1124848	17558804	어린이대공원 열린무대	테마파크시설	127.07774333645273	37.548944575788866
517612	1125357	1082107332	구미산업개발 어린이대공원 놀이동산	테마파크	127.07972338683301	37.55077768801037
517442	1124903	17556365	어린이대공원 교양관	테마파크시설	127.07895213085011	37.54914199338209
518220	1124510	17562781	어린이대공원 사슴마을	테마파크시설	127.08247222499693	37.547723217644574
518345	1124590	17560083	어린이대공원 들새마을	테마파크시설	127.08303835263793	37.548011140420854
518247	1124563	17556361	어린이대공원 초식동물마을	테마파크시설	127.08259465024184	37.54791414377123
518182	1124765	17558237	어린이대공원 원숭이마을	테마파크시설	127.08230122985039	37.54864235543587
518078	1124691	17556775	어린이대공원 동물타기장	테마파크시설	127.08183018041429	37.54837598726962
517985	1124920	17556363	어린이대공원 민속전시실	테마파크시설	127.08141011332121	37.54920159219102
517450	1124778	17556778	어린이대공원 나무뿌리원	테마파크시설	127.07898786785495	37.54869147027064
513940	1122186	23286502	꼬마놀이동산	놀이교육	127.06309190085125	37.53935947347713
549373	1124035	1211891466	아쿠아필드 하남(휴업중)	워터테마파크	127.22347946179778	37.54582864526763
388021	1139607	724953353	누리워터파크	워터테마파크	126.49277072937427	37.60107130371996
497162	1131210	27215154	다이나믹메이즈 서울인사동점	테마파크	126.98714973498465	37.57189803810801
503391	1131241	26597070	테지움 서울	테마파크	127.01535423310278	37.57200946238991
523259	1137463	10256782	다해인터내셔날	테마파크시설	127.10534679161063	37.59438737142844
550897	1130407	27488064	재미터테마파크	테마파크	127.2304482792548	37.568779823191534
574456	1138170	24254788	코코몽팜빌리지	테마파크	127.33724201290092	37.59650058384455
793659	1135750	27192536	휘닉스평창 블루캐니언	워터테마파크	128.3297942394404	37.580769699678356
793696	1135708	17581731	휘닉스평창 블루캐니언실내존	워터테마파크	128.32995905518803	37.58061648614786
793980	1135610	17577105	휘닉스평창 블루캐니언실외존	워터테마파크	128.33123850139248	37.58024889678632
389788	1144585	1534050942	강화루지	테마파크	126.50065446638662	37.619045246305944
386860	1146165	17579737	강화로얄워터파크 로얄호텔 바디슬라이드	워터테마파크	126.48734974455935	37.62468237681023
386898	1146077	17583262	강화로얄워터파크로얄호텔 야외유수풀	워터테마파크	126.487524097833	37.62436599000491
386865	1146102	17576555	로얄워터파크 야외유아풀	워터테마파크	126.48737395847137	37.624455435606365
431714	1146530	27273616	피싱파크진산각	테마파크	126.69057927636224	37.62670575994963
466417	1147614	27332525	배다골테마파크	테마파크	126.84781839976803	37.630919997232326
519538	1142522	1535542089	봉화산옹기테마공원	테마파크	127.08851491815972	37.61263362826504
387041	1159509	2058159326	옥토끼우주센터 보트장	테마파크시설	126.48783971812495	37.67277490014548
445805	1157030	12937327	원마운트	테마파크	126.75430385452177	37.66469689008829
445807	1156983	19585517	원마운트 워터파크	워터테마파크	126.75431347985432	37.66452752611969
444955	1155565	2027143184	K컬처밸리 (2024년예정)	테마파크	126.75046803746339	37.659409100044535
445754	1157096	1853970625	더어드벤처 아이스엔초비	테마파크	126.75407186028302	37.66493426502055
443105	1157037	69457438	VR쥬라기테마파크	테마파크	126.74206327322196	37.66469598555214
477213	1152320	1227629811	아쿠아필드 고양(휴업중)	워터테마파크	126.89671698353703	37.64793306342577
475467	1158724	782990251	삼송공룡테마파크	테마파크	126.88876875153129	37.67100537387036
470009	1159543	383815139	오즈키즈워터파크	워터테마파크	126.86401715722425	37.67393104228371
476811	1152065	360783047	슈팅몬스터	테마파크	126.89489619978285	37.64701245247926
475487	1158864	513354770	지구촌종합레저타운	테마파크	126.88885867778262	37.67151000715271
512423	1151309	25491834	중랑천워터파크	워터테마파크	127.0563050384311	37.644321260273614
598700	1158053	23181577	에델바이스 스위스 테마파크	테마파크	127.44747988057638	37.66779076684892
599163	1157932	1596757006	에델바이스 스위스 테마파크 스위스테마관	테마파크시설	127.449576311477	37.66734672360595
598960	1157990	1596196958	에델바이스 스위스 테마파크 러브프로포즈	테마파크시설	127.44865725245357	37.667559248932854
599175	1158003	1596706693	에델바이스 스위스 테마파크 커피박물관	테마파크시설	127.44963225808266	37.667602386793455
598918	1157995	1596298630	에델바이스 스위스 테마파크 스위스스토리	테마파크시설	127.44846694985378	37.66757799212067
599097	1157991	1596966326	에델바이스 스위스 테마파크 러브클레인디자인	테마파크시설	127.44927837675678	37.66756048855893
651548	1153423	7813421	비발디파크 오션월드	워터테마파크	127.6869120393257	37.649953497315735
650299	1152915	138842481	소노벨비발디파크 앤트월드	테마파크시설	127.68123442220259	37.64815565653749
651332	1152938	17577004	비발디파크 오션월드 실내존	워터테마파크	127.68591697921737	37.64821141184278
650400	1152924	1600463562	비발디파크 K1스피드	테마파크시설	127.68169247426871	37.648185445316514
651445	1153238	17582837	비발디파크오션월드 자이언트워터플렉스	테마파크시설	127.68643907205191	37.64928953513378
651548	1153429	17579164	비발디파크오션월드 몬스터블라스터	테마파크시설	127.68691223848364	37.64997511935393
650701	1151982	7903040	비발디파크 놀이시설	테마파크시설	127.68302558919595	37.64478288941099
651220	1153068	18151184	비발디파크 오션월드 키즈풀	테마파크시설	127.68541367450095	37.64868283999909
651582	1153798	17579161	비발디파크 웨이브카바나	테마파크시설	127.68707858938795	37.65130397708245
651617	1153120	17576410	비발디파크 벨리카바나	워터테마파크	127.68721470885724	37.64885976290421
651455	1153635	17582834	비발디파크 익스트림리버	테마파크시설	127.68649756459061	37.65071992970284
651302	1153140	17579162	비발디파크 로얄썬베드	워터테마파크	127.68578770586353	37.648940144637336
651312	1152978	17581683	오션월드 메가슬라이드존	테마파크시설	127.68582766009632	37.64835608585428
651675	1153278	17581888	비발디파크 슈퍼부메랑고	테마파크시설	127.68748282925486	37.6494276115999
651370	1153793	17581887	비발디파크 비치카바나	테마파크시설	127.68611755044833	37.65129155139649
704870	1160298	1474088353	목재문화체험장 (2025년예정)	테마파크	127.92888462476355	37.67307245904534
472370	1163846	20056454	통일워터파크	워터테마파크	126.87469611190076	37.68945050032025
468085	1164007	17577198	쥬라리움 일산점 앵무새마을	테마파크시설	126.85526227724276	37.69000847860725
468042	1163957	17575376	쥬라리움 일산점 물고기마을	테마파크시설	126.85506761919058	37.68982804427018
468072	1164049	17580548	쥬라리움 일산점 원숭이장기자랑	테마파크시설	126.85520302681236	37.69015976989064
470255	1161925	980037663	패밀리워터파크	워터테마파크	126.86511700758334	37.68251682562967
467928	1164070	17576585	쥬라리움 일산점 물범마을	테마파크시설	126.85454982516941	37.69023464806
511618	1168964	1485348285	아일랜드캐슬 워터파크	워터테마파크	127.05270150581227	37.7079500672289
535975	1165540	17576227	밤섬유원지 밤섬랜드	테마파크시설	127.16316227006735	37.695509209127245
691609	1164223	151896785	홍천무궁화테마파크	테마파크	127.86893051830357	37.68767437455356
432370	1172326	1193650914	롯데프리미엄아울렛 파주라기파크	테마파크	126.69316917686423	37.71967886358387
454740	1175704	560886206	퍼스트가든	테마파크	126.79462536146097	37.73207316195957
463889	1180757	1914510782	하니랜드	테마파크	126.83610011948687	37.75034849314765
463273	1180681	17580539	하니랜드 워터파크	워터테마파크	126.83330485626401	37.75007067903745
463174	1180630	17582060	하니랜드 잔디썰매장	테마파크시설	126.83285593390372	37.74988624602943
464051	1180582	18131225	하니랜드 이벤트장	테마파크시설	126.83683678386936	37.749718838388944
463826	1180857	17583225	하니랜드 인공폭포	테마파크시설	126.8358133811534	37.75070848080134
489058	1173636	18191663	두리랜드	테마파크	126.95035372646545	37.72478877520336
488975	1173643	17577403	두리랜드 바이킹	테마파크시설	126.94997712027693	37.72481384321173
543278	1171615	26870156	어린이비전센터 라바파크 (휴업중)	테마파크	127.19634213528481	37.71735228057022
645888	1177381	395591143	강아지숲	테마파크	127.66202609297865	37.73643669836771
771248	1171746	25461973	모둘자리 힐링체험마을 짚라인	테마파크시설	128.23046943267764	37.711566568977766
430143	1189835	13322607	통일동산 ATV체험장	테마파크시설	126.6827963834457	37.78275133862116
530852	1187757	17569799	아프리카예술박물관 범퍼카	테마파크시설	127.14007807639639	37.77560623708301
607170	1190245	1313115375	꿈의동산놀이공원 (휴업중)	테마파크	127.48663790932187	37.78365095504963
607274	1190604	26417384	꿈의동산놀이공원 안보교육장	테마파크시설	127.4871186285583	37.784942739162155
606833	1190253	26417379	꿈의동산놀이공원 꿈의성	놀이시설	127.48510789745355	37.78368609477593
606645	1190518	22959672	알곡종합운동장	종합운동장	127.48426048520726	37.78464459241384
620109	1186528	1602104105	포시즌워터파크캠프2	워터테마파크	127.54529065298529	37.769998737779034
430573	1191981	698609093	쥬라리움 파주점	테마파크	126.68471602659372	37.79049032117043
433146	1192076	11481502	사파리체험테마파크	테마파크	126.69639905689627	37.79086336930786
433141	1192332	551634017	아지동테마파크	테마파크	126.69637257570211	37.791785882405925
455995	1192208	10888175	금강산랜드	워터테마파크	126.80016014022065	37.791560757534036
528338	1201149	1737412191	페리아도워터파크	워터테마파크	127.12874747086752	37.82388176832515
521773	1196851	377638405	양주유수풀파크	워터테마파크	127.09890021785031	37.80842135195567
614361	1192374	24874932	아토믹워터파크	워터테마파크	127.51934332539996	37.79118385310574
639666	1199114	24244483	강촌테마랜드	테마파크	127.63446183597553	37.81490967064089
505114	1206871	10229479	그린아일랜드	테마파크	127.02324082849078	37.84457089514906
499674	1205885	916871397	양주농촌테마공원	테마파크	126.99851854773722	37.84101981797718
613537	1202850	27092396	가평레일파크	테마파크	127.51586405198422	37.828952525384786
614984	1203126	26821672	자라섬워터파크	워터테마파크	127.52244537060264	37.829918160584775
622267	1206601	1995027430	현무리조트	테마파크	127.5556292005283	37.84228941018791
673023	1210093	15867944	춘천커피테마파크	테마파크	127.78640096420223	37.853558694043414
694518	1201900	1308332525	알파카월드	테마파크	127.88373474112795	37.82334321180986
443268	1219674	12678193	평화랜드	테마파크	126.7420189704711	37.890429946744035
653160	1217895	27204421	레고랜드코리아리조트 (2022년5월예정)	테마파크	127.69639340719131	37.882241736051604
531257	1229649	25450123	어메이징파크	테마파크시설	127.14220657540656	37.92657435564681
552149	1228748	11520510	포천아트밸리	테마파크	127.23724560487295	37.923174149309475
568350	1223797	20496856	운악레저타운	테마파크	127.31087413077078	37.90516048180391
627390	1227736	24949292	별비치	워터테마파크	127.57950551548988	37.91833950385327
627909	1229249	21159173	캠핑파파 놀이동산	관광지부속시설	127.58190932882427	37.92378007173984
658335	1228042	8037747	육림랜드	테마파크	127.72027788087449	37.91866485314346
496666	1245682	12721502	산들애테마	테마파크	126.98481975482947	37.984438145498736
500983	1273018	2066314940	허브빌리지	테마파크	127.00448175771315	38.08294970863406
571056	1269294	15430606	산정랜드	테마파크	127.32390157026398	38.06908342899109
756328	1268294	25626933	인제나르샤파크	테마파크	128.1682845296932	38.060119782460404
756468	1268501	1843516818	인제나르샤파크 스카이점프	테마파크시설	128.168934361145	38.060859245472344
504496	1279012	18583850	두루미테마파크	테마파크	127.02050448961975	38.10454834531562
509749	1286020	109712998	연천로하스파크	테마파크	127.04447666846356	38.12979606591611
686363	1309297	27392358	국제평화아트파크	테마파크	127.85115284618313	38.21060013178227
745392	1326393	92514913	해안야생화공원	테마파크	128.12165285668374	38.26993098828783
