x	y	ID	NAME	CATE	lat	long
339615	-71526	11059651	산방산랜드	테마파크	126.31170313369228	33.23378585686046
363835	-68881	10880885	퍼시픽 리솜 마린스테이지	테마파크	126.4155753836472	33.243856411940286
385499	-68535	17150892	제주워터월드	워터테마파크	126.5085477400048	33.245506378117895
342118	-65901	72768362	플레이네이쳐	테마파크	126.32228764350697	33.25413033945098
352288	-58808	303901411	파더스가든	테마파크	126.36575533641084	33.279940284739
356143	-63404	683714694	중문미로파크	테마파크	126.3824237524996	33.26344889311301
362679	-67598	1316272771	롯데호텔제주 플레이토피아	테마파크시설	126.41058296463935	33.248459978063664
431490	-60653	19388120	제주코코몽에코파크	테마파크	126.70584844807746	33.27455622780964
431334	-60698	107991673	다이노대발이파크	테마파크	126.7051792064299	33.274392348713576
434708	-59791	14087877	남원용암해수풀장	워터테마파크	126.71965502942783	33.277696957546894
430460	-61180	12665029	금호리조트 제주아쿠아나	워터테마파크	126.70143260568773	33.2726450601116
330906	-49046	8064310	제주 유리의성	테마파크	126.2736597675655	33.31464214733829
342245	-55800	11330871	소인국테마파크	테마파크	126.32255150876668	33.2905605184112
340578	-51852	1214707005	신화테마파크	테마파크	126.31528211164581	33.30475887759463
340608	-51488	1870273669	신화워터파크	워터테마파크	126.31540069659991	33.3060722707345
342018	-56250	1894564800	제주루지테마파크	테마파크	126.32158931895071	33.28893237268784
342027	-56232	12520358	제주거울미로 이상한나라의 앨리스	테마파크	126.32162746234746	33.28899749678432
342029	-56336	17808836	이상한나라의앨리스 서광카트장	테마파크시설	126.321638952385	33.2886224898106
340759	-51446	1218217789	신화워터파크 실내워터파크동	테마파크시설	126.31604802905161	33.30622730547633
340550	-51742	620485575	신화테마파크 윙클스하우스	테마파크시설	126.3151587583113	33.30515490490581
341960	-55945	17576093	소인국테마파크 7단지	테마파크시설	126.3213317539727	33.290030930398274
342395	-55487	17580852	소인국테마파크 3단지	테마파크시설	126.32318690083329	33.29169279531692
340738	-51707	1785224295	신화워터파크 메인엔트리빌딩	테마파크시설	126.31596518689504	33.305285571787365
340621	-51638	152138759	신화워터파크 시즌락커동	테마파크시설	126.31546075557381	33.30553163745966
342224	-55849	17581835	소인국테마파크 5단지	테마파크시설	126.32246269955066	33.29038331882044
341982	-55785	17578404	소인국테마파크 6단지	테마파크시설	126.32142175597306	33.290608451951826
342397	-55898	17580851	소인국테마파크 1단지	테마파크시설	126.32320693240653	33.290210658166934
342335	-55695	17578405	소인국테마파크 4단지	테마파크시설	126.32293504836335	33.290941284411524
342467	-55745	17576094	소인국테마파크 2단지	테마파크시설	126.32350325656508	33.29076405655266
353502	-53137	942616668	뽀로로앤타요테마파크 제주	테마파크	126.3708209603839	33.30041822031929
347607	-47960	17630155	토이파크	테마파크	126.34536504057434	33.318957239914006
404251	-56412	820826091	윈드1947카트테마파크	테마파크	126.58882680204992	33.2895194716597
415171	-50911	17556755	휴애리자연생활공원 산토끼놀이동산	공원시설물	126.63563700686943	33.30950489416159
457122	-45630	17580835	제주 허브동산 라벤더광장	테마파크시설	126.81578638134121	33.328948569779925
456968	-45432	1597784368	제주허브동산 별빛놀이	축제	126.81512325725014	33.32966167352294
322293	-30547	627270178	액티브파크	테마파크	126.23608317611234	33.38113117966386
320151	-29496	11023307	금능석물원	테마파크	126.22684244789954	33.38486424038619
352686	-28211	1868828759	9.81파크	테마파크	126.36666614344385	33.39029073527868
352581	-28354	360354033	모노리스제주파크	테마파크	126.36621849292706	33.38977273563908
438757	-30233	45736382	가시리 조랑말체험장	테마파크	126.73671965694078	33.38433522014865
451271	-31031	2096590	오늘은카트레이싱	테마파크	126.79052321371753	33.381559718845175
463149	-30541	10399499	일출랜드	테마파크	126.84158109499639	33.3834025606004
351379	-26741	14513668	무병장수테마파크	테마파크	126.36100858735074	33.39556312881853
362625	-19395	891104398	제주불빛정원	테마파크	126.40917876350859	33.422294395344004
358042	-23021	1304746374	제주포크테마파크	테마파크	126.38956069318382	33.40912264961148
359106	-23377	17582871	렛츠런파크제주 아름다운승마장	테마파크시설	126.39414473155374	33.40786124399116
357680	-19173	24244412	제주애견공원	테마파크	126.387906770039	33.422991870229644
361013	-17762	17985352	렛츠런파크제주 매직포니	테마파크시설	126.40220585067077	33.42815021176108
359853	-22640	17581920	렛츠런파크제주 골프고객휴게소	테마파크시설	126.39733838076192	33.410534708321045
359398	-23067	17580298	렛츠런파크제주 신관람대	테마파크시설	126.39539254851263	33.408985312269856
359323	-23510	17576449	렛츠런파크제주 자전거트랙	테마파크시설	126.39508112777997	33.40738616290418
359324	-23692	17579199	렛츠런파크제주 원형놀이마당	테마파크시설	126.39508997679516	33.406729842700564
359503	-23537	17581922	렛츠런파크제주 토끼우리	테마파크시설	126.39585577425281	33.40729256472348
359494	-23209	1650629303	렛츠런파크제주 해피빌	테마파크시설	126.39580888674159	33.4084752328933
359183	-23727	17579198	렛츠런파크제주 모험랜드	테마파크시설	126.3944845787383	33.40660066592752
359451	-23164	65456820	렛츠런파크제주 해피랜드	테마파크시설	126.39562286715115	33.408636614491954
361013	-17762	17985357	렛츠런파크제주 골프고객휴게소	테마파크시설	126.40220585067077	33.42815021176108
359960	-23160	17579197	렛츠런파크제주 매직포니	테마파크시설	126.39781142164422	33.40866168179131
359343	-23450	17583160	렛츠런파크제주 꿈의무대	테마파크시설	126.3951656251555	33.40760295835321
359230	-23332	17577086	렛츠런파크제주 청동마상	테마파크시설	126.39467678977095	33.40802612857072
359097	-23645	17576446	렛츠런파크제주 담덕의꿈	테마파크시설	126.39411274242192	33.40689457483805
359328	-23580	17576447	렛츠런파크제주 상설체험장	테마파크시설	126.39510437666058	33.40713382881964
359566	-23403	17581480	렛츠런파크제주 KNets존	테마파크시설	126.39612332063534	33.40777712372677
450063	-26149	1527411751	다이나믹메이즈 제주도성읍점	테마파크	126.7852869982483	33.39915756521219
450469	-26295	17382302	성읍랜드	테마파크	126.78703394123589	33.39863403148795
462959	-21704	23231118	물의도시 베니스랜드	테마파크	126.84070616626964	33.415271822959056
484612	-17874	17581830	휘닉스제주섭지코지 글라스하우스	테마파크시설	126.93381374383583	33.42916918298928
484327	-18410	23150913	휘닉스제주섭지코지 바람의언덕	테마파크시설	126.9325894081013	33.42723546187941
484252	-17076	23150911	휘닉스제주섭지코지 해안산책로	테마파크시설	126.93226309147234	33.432046298625764
482833	-17756	23150907	휘닉스제주섭지코지 불턱BBQ	테마파크시설	126.92616162440586	33.42959042575879
483927	-17724	17993958	휘닉스제주섭지코지 송이길산책로	테마파크시설	126.93086702192937	33.429708544268365
483070	-17826	17579764	휘닉스제주섭지코지 레드동	테마파크시설	126.92718121440751	33.42933857649663
368395	-14170	9401924	제주공룡랜드	테마파크	126.43387092301784	33.4412529209518
368450	-14322	17574886	제주공룡랜드 3D입체영화관	테마파크시설	126.43411106687186	33.440705846890445
381103	-11229	10803688	제주러브랜드 (휴업중)	테마파크	126.48847304580934	33.45209656638597
381390	-11342	17576100	제주러브랜드 도깨비광장	테마파크시설	126.48971014121176	33.451694141891004
381663	-11374	17576368	제주러브랜드 옥문관	테마파크시설	126.49088528930484	33.45158356818586
381787	-11398	17581812	제주 러브랜드 쉼팡	테마파크시설	126.49141925451525	33.451499206155546
381695	-11407	17576071	제주러브랜드 퍼포먼스광장	테마파크시설	126.491023651603	33.451465125369545
413015	-13383	12721319	노루생태관찰원	테마파크시설	126.62579741490568	33.44481882979365
423358	-12442	21500227	에코랜드테마파크	테마파크	126.67027865734676	33.448338725173585
420751	-12467	13322621	제주돌문화공원	테마파크	126.65906361256363	33.44821823617541
420890	-7768	921324600	서프라이즈테마파크	테마파크	126.6595953800291	33.46516625404321
424303	-16572	8577982	제주센트럴파크	테마파크	126.67439972377463	33.433455062830944
420060	-12433	17558042	제주돌문화공원 돌하르방	테마파크시설	126.6560904304166	33.44833264417116
424130	-13660	17577216	에코랜드테마파크 그린티&로즈가든역	테마파크시설	126.67361628072905	33.44395492840561
423805	-12401	17576609	에코랜드테마파크 풍차	테마파크시설	126.67220111112437	33.44849168555336
420014	-12116	17562721	제주돌문화공원 역사속의돌문화	테마파크시설	126.65588802250625	33.44947531831453
419932	-12170	18119068	제주돌문화공원 돌문화영상	테마파크시설	126.6555360214002	33.449279594206956
424427	-13030	17580560	에코랜드테마파크 키즈타운	테마파크시설	126.67488544584064	33.44623031110123
421200	-12303	18119065	제주돌문화공원 수표소	테마파크시설	126.66099292079889	33.448814979084766
419822	-12910	1228644787	제주돌문화공원 돌한마을	테마파크시설	126.65507335674569	33.44660955569123
424422	-16508	17581610	제주미니미니랜드 유럽	테마파크시설	126.67491071820724	33.4336872149908
420380	-12035	18119066	제주돌문화공원 별관휴게소	테마파크시설	126.65746143744573	33.44977179492754
420814	-12478	18118957	제주돌 문화공원 미아보호소	테마파크시설	126.65933479518841	33.44817931084176
421202	-12335	18119049	제주돌문화공원 수표휴게소	테마파크시설	126.66100197386825	33.44869959831356
424547	-16650	17582079	제주미니미니랜드 아메리카	테마파크시설	126.67545028874444	33.43317651453345
420811	-12481	18119060	제주돌문화공원 미아보호휴게소	테마파크시설	126.65932193141839	33.44816845623263
419897	-12390	17560164	제주돌문화공원 존자암지부도	테마파크시설	126.65538858650794	33.448485771788086
420183	-12888	18119062	제주돌문화공원 원두막휴게소	테마파크시설	126.6566260457649	33.44669320623257
420002	-12245	18119052	제주돌문화공원 생활속의돌문화	테마파크시설	126.65583823496242	33.44900995176365
420082	-12285	18119061	제주돌문화공원 생산생업	테마파크시설	126.65618296911097	33.44886665123405
419909	-12118	17562723	제주돌문화공원 선사인의돌문화	테마파크시설	126.65543633211841	33.449466851143455
420087	-12198	18119051	제주돌문화공원 의식생활	테마파크시설	126.65620324148856	33.4491804661286
420105	-12240	18119067	제주돌문화공원 주생활	테마파크시설	126.65628127623285	33.449029212753295
432486	-8381	1144766060	포레스트사파리	테마파크	126.7094988984755	33.463082503206934
483282	-16701	23121314	한화 아쿠아플라넷제주 오션데크	테마파크시설	126.92808971566036	33.4333963701197
350570	-4377	1129394481	고스트타운	테마파크	126.35693587972366	33.476194838822195
350548	-4328	2132173808	고스트타운 고스트하우스	테마파크시설	126.35683990344984	33.47637105157993
386010	-2838	965883722	바운스슈퍼파크 제주센터	테마파크	126.50941313671089	33.48244235886935
416063	-3065	11714326	제주레포츠랜드	테마파크	126.63875512427862	33.48206819899894
425025	316	1664175878	스위스스토어	테마파크	126.6772796525539	33.49436774467164
431169	-4021	12501734	선녀와나무꾼 테마공원	테마파크	126.70377864783707	33.47879293911115
430443	-3962	19583572	펀테마파크	테마파크	126.7006535366833	33.47899820907822
431043	-3745	17951916	선녀와나무꾼 테마공원 연꽃농원	테마파크시설	126.7032330063014	33.47978700319091
430992	-3945	17556345	선녀와나무꾼 테마공원 추억의영화마을	테마파크시설	126.70301598367826	33.47906520125861
431166	-3888	17558799	선녀와나무꾼 테마공원 옛사골먹거리장터	테마파크시설	126.703764104699	33.4792725569968
453735	-1451	13095815	메이즈랜드	테마파크	126.80087192810757	33.48825545323459
402594	193412	25974699	노화건강테마촌	테마파크	126.57731555571917	34.19040599370422
335228	262195	22988034	돈지백구테마센터	테마파크	126.28289709423443	34.437058753775375
612959	267691	228883298	고흥우주랜드 (2021년예정)	테마파크	127.49173308285955	34.457990265816285
334951	274932	26202638	진도개테마파크	테마파크	126.28129821521651	34.48297581996202
338830	270226	14823037	운림예술촌	테마파크	126.29833014249868	34.46610615096416
413234	278748	1278485463	두륜미로파크	테마파크	126.62210804727775	34.498264663446605
277390	316639	27387137	하의해양테마파크	테마파크	126.02893202021069	34.63161025451065
509771	317296	26647668	스파리조트안단테 워터파크	워터테마파크	127.04262690935387	34.63783757159921
484806	325040	17577217	편백숲 우드랜드 치유의숲	테마파크시설	126.93369252260968	34.66574984497956
484970	325862	17575453	우드랜드 편백톱밥찜질방	테마파크시설	126.93440589150019	34.668714141463894
484792	326100	17576163	우드랜드 목재문화체험관	테마파크시설	126.9336283777654	34.66957188427298
484884	325839	17575452	우드랜드 편백노천탕	테마파크시설	126.93403063521629	34.66863100719929
485060	325766	17583318	우드랜드 흙집촌	테마파크시설	126.93479894156762	34.66836820223729
485025	325448	17580562	우드랜드 한옥촌	테마파크시설	126.9346470952874	34.66722149869155
484640	325718	17576611	우드랜드 통나무집촌	테마파크시설	126.9329661205903	34.66819413320751
484967	325284	17582083	정남진 편백숲우드랜드 목공건축체험장	테마파크시설	126.93439444181664	34.66663002313912
484835	325610	17580563	우드랜드 수라간	테마파크시설	126.933817445819	34.66780517947168
484740	325970	17577218	우드랜드 물레방아연못	테마파크시설	126.93340181166184	34.6691030158963
515932	328743	25920249	서편제판소리테마파크	테마파크	127.06953930689644	34.67910005326914
413233	333798	10899861	토담골랜드	워터테마파크	126.62120366032126	34.69675809993217
518709	340051	17224352	한국차박물관	테마파크시설	127.08170029184916	34.719865889949034
544599	336977	2098523765	보성비봉공룡공원	테마파크	127.19473288485673	34.708653746157346
678415	334107	1481076537	여수예술랜드 익스트림공중그네 스윙	테마파크시설	127.77888765943956	34.69597186484727
673267	337594	1960955745	라테라스리조트앤스파 키즈워터파크	워터테마파크	127.75652976506053	34.70868543870394
646844	348290	1576142949	유월드 루지 테마파크	테마파크	127.64146475761402	34.747911207851644
647473	343597	26924902	디오션리조트 워터파크	워터테마파크	127.64408096951817	34.730976280510696
646572	348461	1372936940	유월드 다이노밸리	테마파크	127.6402813922551	34.74853399348228
673097	346660	17510273	여수엑스포 동백유람선 매표소	테마파크시설	127.75608511079031	34.74137644207378
428118	360015	11614296	월출산기찬랜드	테마파크	126.68582807522368	34.79147159875695
427920	360145	23707275	가야금산조테마공원	테마파크	126.68496091310242	34.7919380904089
428240	359965	17576574	기찬랜드 자연형풀장	테마파크시설	126.6863619714718	34.79129269370202
428222	360253	17808278	기찬랜드 가야금동산	테마파크시설	126.6862793681071	34.79233090473987
428231	359824	17582960	기찬랜드 국수풀장	테마파크시설	126.68632456117224	34.79078420219323
637896	354364	9226392	에코힐즈	테마파크	127.60253789317116	34.770010479659234
732703	356097	1463164410	남해내산플레이랜드	테마파크	128.01682862682034	34.77350349945796
820560	355960	17559061	통영달아공원 관해정	테마파크시설	128.4006361895788	34.76919858196943
448880	368257	25642390	뱅뱅이골기찬랜드	테마파크	126.77649081148861	34.821389524535505
737646	363781	1346701063	도이처파크	테마파크	128.038771944866	34.80102252481444
828125	364366	27104178	샤크유린레져스쿨	테마파크	128.43420565416872	34.79911355396735
871414	369681	25022797	거제자연예술랜드	테마파크	128.62373047915216	34.81589341062703
871350	369720	17579134	거제자연예술랜드 야외공원	테마파크시설	128.6234535444364	34.816037707033274
871263	369733	17576988	거제자연예술랜드 석림지실	테마파크시설	128.62307425555616	34.81608963498732
871275	369675	17581858	거제자연예술랜드 목공예전시실	테마파크시설	128.623122597273	34.81587989212683
889498	377505	19902376	소노캄거제 오션베이	워터테마파크	128.70333974998866	34.843010876108565
889156	375185	26247216	거제조선테마파크	테마파크	128.70167258919201	34.8346704483292
270763	385450	688580033	1004뮤지엄파크	테마파크	125.9970322817035	34.87944906345779
386177	388311	146914127	전통생활문화테마파크	테마파크	126.50190891219376	34.89288141972001
808873	391558	818767235	에이앤비 더카트인통영	테마파크	128.35168031972336	34.89809281909949
824072	388728	1415897158	윌리코키	테마파크	128.41800074256926	34.887134342934324
871071	386626	1537552024	거제도 포로수용소 유적공원 거제랜드	테마파크	128.6234307115232	34.876986147326335
597367	400516	1374305785	예술의성	테마파크	127.42630876142647	34.93716008908621
607247	393356	1369286951	예술테마파크	테마파크	127.469418791022	34.91118552359988
690006	398994	17707159	대도파라다이스	워터테마파크	127.83183250574417	34.92957280959304
763141	394071	17384754	백악기공룡테마파크	테마파크	128.15171483711683	34.90921253447126
389680	408475	1867137831	밀리터리테마파크	테마파크	126.51681153985874	34.965643505455795
408787	412421	14741072	나주영상테마파크	테마파크	126.60042684280234	34.98017477351449
408944	411965	17576402	나주영상테마파크 해자성문	테마파크시설	126.6011225639979	34.978532945651075
408907	412047	17581876	나주영상테마파크 동물의집	테마파크시설	126.60095905213328	34.97882806076056
408928	412308	17582824	나주영상테마파크 중간성문	테마파크시설	126.60104647859723	34.97976938770527
409035	412258	17576401	나주영상테마파크 외곽성루	테마파크시설	126.60151607016286	34.97959065388428
406807	411945	17984650	나주영상테마파크 신단	테마파크시설	126.59176184633901	34.978429725548146
406807	411945	17984255	나주영상테마파크 귀족촌	테마파크시설	126.59176184633901	34.978429725548146
409063	412004	17976356	나주영상테마파크 졸본부여궁	테마파크시설	126.60164316003714	34.97867526978213
408818	412493	17582823	나주영상테마파크 국내성문	테마파크시설	126.60056137974367	34.980434813262264
408653	412488	17580289	나주영상테마파크 고구려궁	테마파크시설	126.59983867186402	34.980414406117745
408820	412415	17580499	나주영상테마파크 귀족촌	테마파크시설	126.60057150651555	34.980153616380086
408773	412452	17984247	나주영상테마파크 고구려체험장	테마파크시설	126.6003649718625	34.98028634087541
408702	412345	17581875	나주 영상테마파크 연못궁	테마파크시설	126.60005582703903	34.97989953287824
408620	412775	17581874	나주영상테마파크 신단	테마파크시설	126.59968907685564	34.981448695777345
408543	412575	17574850	나주영상테마파크 태자궁	테마파크시설	126.59935528046536	34.98072649191794
408850	412180	17580500	나주영상테마파크 철가방	테마파크시설	126.60070703633215	34.97930676594726
408683	412641	17576400	나주영상테마파크 한성문	테마파크시설	126.59996740642788	34.98096647409417
408791	412602	17984263	나주영상테마파크 성루	테마파크시설	126.60044119510255	34.98082741898941
408690	412745	17576399	나주영상테마파크 여미을비전방	테마파크시설	126.59999624719032	34.98134154263796
425000	408534	19532510	나주배테마파크	테마파크	126.6715052956787	34.96637317511845
470492	403365	11156153	중흥골드스파&리조트 워터락	워터테마파크	126.87078550134038	34.94811157861836
618625	405154	17151807	조은프라자 광장	테마파크시설	127.51948652319568	34.95351977751599
724150	409831	26620490	별주부전테마파크	테마파크	127.98176015198712	34.96752532371722
796760	410798	2110429939	공룡타조랜드	테마파크	128.29977780404195	34.96802403805836
876850	411884	17466819	거제맹종죽테마공원	테마파크	128.65052669102616	34.9676778558237
891950	408637	26152803	해송키즈랜드	테마파크	128.71639170227897	34.95505916548573
483345	416625	1193325453	테마파크소풍	테마파크	126.92702589346031	34.9959679689345
480510	414288	863785572	화순 세계거석테마파크	테마파크	126.91461306509892	34.98753373220606
390446	433036	17581902	함평엑스포공원 함평워터파크	워터테마파크	126.51964900767334	35.054209061074715
390625	432970	17577008	함평엑스포공원 나비랜드놀이동산	테마파크시설	126.52043521862383	35.053974211401616
755669	427419	1811157915	우천숲물놀이장	워터테마파크	128.1206531641668	35.029732943064246
794706	425577	27482159	충효테마파크	테마파크	128.29162035304063	35.02139264294122
462750	437032	14586008	고싸움놀이테마파크	테마파크	126.83664251902485	35.06945762566865
469800	441191	93536714	빛고을농촌테마공원	테마파크	126.86753552623549	35.08449050993015
819492	436098	17573641	고성당항포랜드 공룡세계엑스포행사장	테마파크시설	128.4008705255811	35.058110237209945
819375	435393	17576054	고성당항포랜드 엑스포주제관	테마파크시설	128.40031426224326	35.05557504387841
861872	442008	24286081	로봇랜드	테마파크	128.58704603663006	35.0771225899602
892105	446630	25045684	해양생물테마파크	테마파크	128.71993623508635	35.09197229146636
891967	446155	26932721	로봇상설체험관	테마파크	128.71929521286899	35.09026904571367
899708	452666	27069612	농업테마파크	테마파크	128.7537383810429	35.113247127687075
386623	455593	27563405	함평자연생태공원 놀이동산	놀이시설	126.50239337389948	35.135467213027766
519080	462795	14637055	금호리조트 화순아쿠아나	워터테마파크	127.08376924537671	35.16242626101466
519194	462883	17577400	화순금호리조트 놀이분수	테마파크시설	127.08427008022079	35.16274319202095
519125	462914	18049282	화순금호리조트 야외수영장	테마파크시설	127.08396725511074	35.16285517078545
519106	462876	18049281	화순금호리조트 튜브&바디슬라이더	테마파크시설	127.08388369607289	35.16271822211752
891142	457774	14522232	진해드림파크	테마파크	128.71655606253609	35.13219337737493
891144	457628	11582772	진해드림파크 광석골쉼터	테마파크시설	128.7165537906948	35.131667093533466
981085	460083	95067821	잭슨나인스 부산점	테마파크	129.11127645492675	35.13428095476464
474812	469652	1553633244	아쿠아시티광주	워터테마파크	126.88938061504224	35.18712713649219
473759	467953	12853703	중외공원 놀이동산	테마파크	126.88476475813646	35.180997221089136
484163	469738	1725270765	광주솔로몬로파크 (2022년예정)	테마파크	126.93044756499417	35.18746774882016
623588	468135	140119404	구례워터파크	워터테마파크	127.5427207819382	35.1804923110462
743095	465155	25681529	진주 레일바이크	테마파크	128.06731883616285	35.16626196511161
735860	467441	16670005	진주랜드	테마파크	128.03566244979388	35.174778322343
877610	467628	17583529	진해 파크랜드놀이동산 주차장	주차장	128.657912731705	35.16853301295771
916588	471737	24586167	롯데워터파크	워터테마파크	128.8293050902685	35.18087756124126
916415	471416	25733180	김해롯데워터파크 자이언트웨이브	워터테마파크	128.82851984880702	35.179732279982204
916641	471341	25733179	김해롯데워터파크 자이언트아쿠아플렉스	워터테마파크	128.8295057292917	35.17944702758315
916776	471386	25733178	김해롯데워터파크 티키풀	워터테마파크	128.83010189252596	35.17960023460234
916575	471592	25733175	김해롯데워터파크 힐링스파풀	워터테마파크	128.82923632026782	35.18035590368364
916487	471636	25733176	김해롯데워터파크 실외플레이풀	워터테마파크	128.82885362859636	35.180520295907954
916225	471188	25733182	김해롯데워터파크 더블스윙슬라이드	워터테마파크	128.82766752009888	35.178923252651515
916192	471323	25733181	김해롯데워터파크 토네이도슬라이드	워터테마파크	128.82753357319342	35.17941192312957
916361	471641	25733177	김해롯데워터파크 키즈풀	워터테마파크	128.82830099902782	35.18054666570497
926575	465332	17573467	렛츠런파크부산경남 관람대	테마파크시설	128.8726096101476	35.1571269529816
926024	465341	25690817	렛츠런파크부산경남 더비랜드	테마파크시설	128.8701926804141	35.157196741008754
926167	464594	27201186	렛츠런파크부산경남 호스토리랜드	테마파크시설	128.8707584910038	35.15449522599147
927300	465477	17580221	렛츠런파크부산경남 마사-3	테마파크시설	128.8758027494321	35.15760023420571
926058	465076	1258194417	렛츠런파크부산경남 포니랜드	테마파크시설	128.87032000173772	35.15623950609258
928332	464761	895829478	렛츠런파크부산경남 승마랜드	테마파크시설	128.88027156750917	35.154949915917186
928223	465535	17579767	렛츠런파크부산경남 마사-6	테마파크시설	128.8798574953578	35.15774644429817
927482	465266	340499769	렛츠런파크부산경남 행복마루	테마파크시설	128.8765838623292	35.15682752463055
928078	465277	17576263	렛츠런파크 부산경남마필보건소	테마파크시설	128.87919987640834	35.156826616036064
927293	465742	17573466	렛츠런파크부산경남 마사-2	테마파크시설	128.8757939633455	35.15855563790521
928706	464685	17573498	렛츠런파크부산경남 KRA부산경남본부	테마파크시설	128.88190623875985	35.154650564459274
969202	465033	846455862	런닝맨 부산점	테마파크	129.0596068334141	35.153013512351
969202	465031	127428071	놀이똥산 부산점	테마파크	129.05960665173785	35.15300630613793
982688	465642	17153989	호텔아쿠아펠리스 워터파크	워터테마파크	129.11882631586482	35.15418716044833
985052	469651	27464371	주라지 신세계센텀시티점	테마파크	129.12957368134286	35.168449464831916
994966	467008	188403018	해운대블루라인파크 미포정거장	테마파크	129.17281917296674	35.1581543214654
999173	467950	321220117	해운대블루라인파크 청사포정거장	테마파크	129.19136630438675	35.161215597731136
997210	466372	1824218036	해운대블루라인파크 달맞이터널	테마파크	129.18260238687242	35.15568589519349
993962	467555	1203833355	해운대엘시티워터파크 (2021년예정)	워터테마파크	129.16846691453674	35.16020402941154
1001035	473505	188458716	해운대블루라인파크 송정정거장	테마파크	129.20007442204962	35.18108086503777
475930	479965	8114840	광주패밀리랜드	테마파크	126.89424238617015	35.22431406467051
475547	479855	17558281	광주패밀리랜드 씽씽보트	테마파크시설	126.89256010444836	35.2239159895263
477740	478748	17562596	광주패밀리랜드 패밀리스포츠파크	테마파크시설	126.90220033092518	35.21993298375918
475608	480107	414121957	광주패밀리랜드 빅아이	테마파크시설	126.89282692704279	35.224824786343106
475533	480003	17566254	광주패밀리랜드 중앙광장	테마파크시설	126.89249788859972	35.224449533218014
474641	480048	979358861	우치공원 동물원 파충류관	테마파크시설	126.88857843991981	35.22460823211849
475393	478820	17562659	광주패밀리랜드 얼룩말사	테마파크시설	126.89188841989393	35.22018380317857
475858	479800	18090562	광주패밀리랜드 바이킹	테마파크시설	126.89392681061916	35.22371889785137
475700	479954	18090546	광주패밀리랜드 의무실	테마파크시설	126.89323187668111	35.2242735182843
475945	479876	257690952	광주패밀리랜드 날으는그네	테마파크시설	126.89430870840624	35.22399324214989
476685	480465	17563777	광주패밀리랜드 오리보트장	테마파크시설	126.89755739863602	35.22611961416302
475731	479777	18090568	광주패밀리랜드 꼬마비행기	테마파크시설	126.89336891750494	35.223635483570085
475836	479874	985629013	광주패밀리랜드 크레이지댄스	테마파크시설	126.89382980143093	35.22398561229286
474902	479780	17560244	광주패밀리랜드 동물표본실	테마파크시설	126.88972651859622	35.22364303668481
475690	479702	17560316	광주패밀리랜드 개구리점프	테마파크시설	126.89318912975878	35.223364920183705
475726	479623	18090573	광주패밀리랜드 스타워즈	테마파크시설	126.8933476754005	35.223080233463726
474825	479485	17558654	광주패밀리랜드 조류사	테마파크시설	126.8893896462232	35.22257913675561
475531	479994	17562668	광주패밀리랜드 유모차대여소	테마파크시설	126.89248914389225	35.22441707687034
475630	479527	17558772	광주패밀리랜드 짝꿍놀이터	테마파크시설	126.89292633686226	35.22273374324135
475270	478950	17560308	광주패밀리랜드 대동물관	테마파크시설	126.89134739197257	35.22065202087122
474345	479520	17558273	광주패밀리랜드 작업실	테마파크시설	126.88728051923685	35.22270338028592
475552	479692	17562667	광주패밀리랜드 타가디스코	테마파크시설	126.89258284748249	35.22332832975717
475887	479506	17558280	광주 패밀리랜드 청룡특급	테마파크시설	126.89405560593549	35.222659023389696
475704	479945	17558371	광주패밀리랜드 방송실	테마파크시설	126.8932494941483	35.22424108523773
476009	479560	1281523347	광주패밀리랜드 빅팬듈럼	테마파크시설	126.894591380254	35.222854182627984
474900	479612	17560310	광주패밀리랜드 큰물새장	테마파크시설	126.88971855062414	35.22303732247384
475967	479775	17567071	광주패밀리랜드 깜짝마우스	테마파크시설	126.89440584213791	35.22362918167236
474624	479899	17558204	광주패밀리랜드 호랑이사	테마파크시설	126.88850448078907	35.22407095973965
475776	479663	843092493	광주패밀리랜드 미니셔틀	테마파크시설	126.89356717104835	35.22322464258907
474298	479365	17558774	광주패밀리랜드 신원숭이사	테마파크시설	126.88707479146274	35.22214435171873
474750	479605	17558364	광주 패밀리랜드 원숭이사	테마파크시설	126.8890595335817	35.22301148254895
474508	479646	17562600	광주패밀리랜드 사자사	테마파크시설	126.88799606127289	35.22315832464767
474885	479175	17560309	광주패밀리랜드 무플론사	테마파크시설	126.88965477817659	35.221461704922916
474817	479265	17562661	광주패밀리랜드 소맹수사	테마파크시설	126.88935557358326	35.22178591779476
474425	479267	18090461	광주 패밀리랜드 사슴사	테마파크시설	126.88763326918138	35.22179154224635
474485	479445	17562660	광주 패밀리랜드 들소사	테마파크시설	126.88789600317197	35.222433546879046
475941	479674	17560253	광주패밀리랜드 박치기왕	테마파크시설	126.8942920779285	35.223264937124604
474945	479372	17562591	광주패밀리랜드 해양동물사	테마파크시설	126.88991743453973	35.22217220773256
955555	477981	12780830	구포어린이교통공원	테마파크	129.00087832650672	35.20067142554381
972025	484167	17557675	금강공원 차나무단지	테마파크시설	129.07374297567512	35.221743141192285
1004515	477643	401380860	롯데월드 매직포레스트 (2022년3월예정)	테마파크	129.21575004035262	35.195710435069714
1004997	476629	331910275	애버딘칠드런스뮤지엄	테마파크	129.21776616509698	35.19201854374019
1004288	476918	1502316388	브릭캠퍼스 부산	테마파크	129.21468283168787	35.19311669919811
926197	485214	361243085	뽀로로빌리지	테마파크	128.87259485147715	35.228797161262634
923324	487636	14694145	해원놀이동산놀이방	어린이집	128.86017690160745	35.23771940530215
930741	491350	25023277	김해가야테마파크	테마파크	128.89306421831205	35.250597278848545
932724	494139	9693807	가야랜드	테마파크	128.90200988478702	35.26051050815073
930695	491311	1138559761	김해가야테마파크 익사이팅사이클	테마파크시설	128.89285888337588	35.25045990766276
991040	487758	20532849	신나는둘리놀이동산	놀이시설	129.15757230815484	35.23322139041355
369202	496124	25082614	영광 테마파크	테마파크	126.42490714292131	35.28125265327608
408823	503268	472407866	복골버드랜드	테마파크	126.59898116938612	35.30771142183142
817249	497747	25102254	함안연꽃테마파크	테마파크	128.3948283946051	35.280428863401475
978724	503957	17572761	스포원 물놀이장	워터테마파크	129.1049996545191	35.29253774474834
437892	506591	11553767	홍길동테마파크	테마파크	126.72679188376125	35.3200482277189
437969	506418	894255432	홍길동테마파크 백학정	테마파크시설	126.72713269249388	35.319425275279684
438201	505968	25778733	홍길동테마파크 분수대	테마파크시설	126.7281586534151	35.31780518751954
503955	509171	970935131	테테루테마파크	테마파크	127.01739980882046	35.32965740742098
784639	507452	1101828525	의령미래교육테마파크 (2022년12월예정)	테마파크	128.25202509263212	35.316978550482744
791914	507878	17504786	농경문화테마파크	테마파크	128.28404241523307	35.31817849646312
956878	508316	341114860	잭슨나인스 양산점	테마파크	129.00938279271617	35.309877177217615
995217	512267	870779370	히어로테마파크 정관점	테마파크	129.1782779372285	35.32119292346932
525399	519677	2008398599	순창발효테마파크	테마파크	127.11179361163262	35.36748450508582
865605	517503	628179550	잭슨나인스 창원점	테마파크	128.60877212175672	35.34899021243758
913685	524665	27434720	김해낙동강레일파크	테마파크	128.82082840930877	35.37179795463981
913682	524665	606521994	김해낙동강레일파크 열차카페	테마파크시설	128.82081521080116	35.3717981535811
945081	517271	25460651	원테마농원	테마파크	128.95830437070427	35.34299495351299
587909	529199	8105070	춘향테마파크	테마파크	127.38709151433649	35.40124570845251
589005	529679	8223705	남원랜드	테마파크	127.39192582915751	35.40296064785687
587693	529740	1019665384	춘향테마파크 음악분수대	테마파크시설	127.38614971720547	35.40319917207767
909528	534780	1556398305	트윈터널	테마파크	128.80335100659494	35.40852175175562
624246	538516	24264884	지리산허브밸리	테마파크	127.54731653056395	35.434215934957884
624339	538603	1907781601	지리산허브밸리 허브복합토피아관	테마파크시설	127.54772831258767	35.43452772190168
950544	541280	17902469	에덴밸리리조트 워터플레이	워터테마파크	128.98444659356565	35.42911095125822
950552	541265	20775162	에덴밸리리조트 워터파크	워터테마파크	128.9844804847973	35.42905632564189
648032	554338	1369664853	곰실플리커사진테마파크	테마파크	127.65255128238611	35.49073424324083
904023	556353	2028124277	암새들워터캠프	워터테마파크	128.7808325451612	35.48661998049175
476368	563391	15188763	내장산관광테마파크	테마파크	126.89578085262788	35.52509185399548
972552	561037	23150840	통도환타지아	테마파크	129.0831616259682	35.49866126324305
972415	560860	17582010	통도환타지아 번지점프	테마파크시설	129.0825415761595	35.49803398318451
973161	561086	27164244	아쿠아환타지아	워터테마파크	129.08584927165924	35.49879142831287
973225	561111	17576538	통도환타지아 파도풀	워터테마파크	129.08613356739568	35.498876622340426
972397	561068	17576302	통도환타지아 풍선여행	테마파크시설	129.08248162311256	35.498784744948956
972692	561328	17581658	통도환타지아 환타지아스페셜	테마파크시설	129.08380551486763	35.49969903563309
973286	561088	17580947	통도환타지아 경주용슬라이드	테마파크시설	129.08640017279544	35.498789108060876
972637	560885	17583245	통도환타지아 바이킹	테마파크시설	129.0835219650053	35.4981071616776
972392	560940	17582729	통도환타지아 회전목마	테마파크시설	129.08244768724086	35.49832396074832
972495	560865	17580951	통도환타지아 범퍼카	테마파크시설	129.08289449626744	35.49804591089057
973030	560915	17579720	통도환타지아 스파아일랜드	테마파크시설	129.08525619360248	35.49818532284534
973070	561063	17582012	통도 환타지아 썬베드	테마파크시설	129.085446208501	35.49871549626225
973290	560908	17583246	통도환타지아 방갈로2	테마파크시설	129.08640101938184	35.498140292136775
972011	560882	18161895	통도환타지아 의무실	테마파크시설	129.08076372220066	35.49814396720619
972385	561448	17576303	통도환타지아 시뮬레이션라이더	테마파크시설	129.08246410504037	35.50015473994777
972402	560685	17579110	통도환타지아 야외공연장	테마파크시설	129.08246802313636	35.49740447363391
973102	560895	17576537	통도환타지아 락커실	테마파크시설	129.0855715397947	35.498107781030434
1053151	559999	1878241162	대왕별아이누리	테마파크	129.43808851200282	35.48826701824056
520728	572838	1835301587	힐링테마파크	테마파크	127.09145092901589	35.55916061664064
742905	571350	11199854	합천영상테마파크	테마파크	128.07153049609903	35.5490694870828
743428	572942	27070106	합천정원테마파크	테마파크	128.07391378458166	35.554787438767285
742858	571086	27109925	합천영상테마파크 가호역	테마파크시설	128.07131053715315	35.54811972160398
742712	571308	17580488	합천영상테마파크 에덴의동쪽세트장	테마파크시설	128.07067723238103	35.54892565711863
743175	571310	17581666	합천영상테마파크 서울1945세트장	테마파크시설	128.07271944400776	35.54891471489885
742757	571265	24868722	합천영상테마파크 적산가옥	테마파크시설	128.07087364908003	35.54876889775595
764479	573955	1704787283	정양레저테마파크	테마파크	128.16681935400953	35.55757590267137
764461	574185	252873277	정양레져테마파크	테마파크	128.16675197256117	35.55840569482879
974513	574000	17578419	자수정동굴나라 놀이시설	테마파크시설	129.09301389898002	35.54521496802484
1019808	570420	8030988	울산대공원	테마파크	129.29230028247815	35.52868641429454
1020157	571048	13323882	울산대공원 아쿠아시스	워터테마파크	129.29390265682727	35.53091941664975
1018221	570354	275560716	울산대공원 키즈테마파크	테마파크시설	129.28530001254566	35.52858144172748
1030385	573182	735865257	롯데꿈동산	테마파크	129.33919832852268	35.53774039065343
1028463	573335	20195771	멀티캐릭터테마파크 1호점	테마파크	129.3307438147566	35.538455619021626
383307	585853	204977861	변산리조트 워터파크	워터테마파크	126.48486476429925	35.6050157249874
406632	586619	1278122406	돌개물놀이장	워터테마파크	126.58781493057164	35.60817338639617
496433	586300	21929306	칠보물테마유원지 유아물놀이장	테마파크시설	126.98425306212312	35.60772727566024
660549	580695	1693723379	대봉스카이랜드 모노레일 하부승강장	테마파크시설	127.70855995626134	35.58543856038671
660549	580691	1870292260	함양산삼항노화엑스포 제2행사장 대봉스카이랜드	테마파크	127.70855982922266	35.585424140755784
746836	579817	1276782573	합천국보테마파크 (2021년12월예정)	테마파크	128.0892815812872	35.579433826438596
813537	580176	22225498	산토끼노래동산	테마파크	128.3835852261703	35.57770878223983
925568	585310	1278976121	한천테마파크	테마파크	128.87818472157508	35.589521371408495
379944	593351	19357177	소노벨변산 오션플레이	워터테마파크	126.46984116879507	35.63198171125786
383445	590505	17151014	부안영상테마파크 (휴업중)	테마파크	126.48536652630523	35.62178888821493
383075	590642	17577063	부안영상테마파크 양반가	테마파크시설	126.48372972400018	35.62227578609428
383347	590855	17580295	부안영상테마파크 왕궁	테마파크시설	126.48492574413716	35.623048794747355
383022	590725	17581903	부안영상테마파크 어린이교통안전체험장	테마파크시설	126.4834937922796	35.622573999356085
382837	590532	17581987	부안영상테마파크 상설무대	테마파크시설	126.48268145196525	35.62187472688655
383312	590450	17579810	부안영상테마파크 평민가	테마파크시설	126.48478057516226	35.62158810251852
568212	593449	802431196	임실치즈테마파크	테마파크	127.30122461539327	35.63312500719574
568567	593392	1067477973	임실치즈테마파크 유가공공장	테마파크시설	127.30279150308074	35.63291558602289
568604	593645	1062131056	임실치즈테마파크 지정환홀	테마파크시설	127.30295833456037	35.63382726677632
568033	593510	1810163294	임실치즈테마파크 체험관	테마파크시설	127.30043498293013	35.63334689261088
568543	593228	1117430420	임실치즈테마파크 방문자센터	테마파크시설	127.30268329160198	35.63232461506801
568291	593563	1716971485	임실치즈테마파크 4D영상관	테마파크시설	127.30157501929855	35.63353511637562
1003233	596987	7897055	범서온천 지지워터피아	워터테마파크	129.22189899625042	35.62576015463599
560408	603170	27491976	임실종합테마파크	테마파크	127.2668790010224	35.66825148522294
714846	600818	19769360	피쉬월드	테마파크	127.94902300847158	35.65632850065808
408956	614902	26622650	부안신재생에너지테마파크	테마파크	126.59756304926758	35.71016969837889
510081	616124	12991176	금산사모악랜드	테마파크	127.04456344675762	35.71523970798396
524641	617289	1408430943	아쿠아틱파크아마존	워터테마파크	127.10893212716327	35.71939860489895
888988	610855	18128123	청도프로방스포토랜드	테마파크	128.71878233030986	35.68398096963876
689121	626006	1421024742	거창서핑파크	워터테마파크	127.83634922555272	35.74796624299535
594007	632480	1000797897	마이돈농촌테마공원	테마파크	127.41586326084301	35.773493799598214
756521	632210	18324890	대장경테마파크	테마파크	128.13468403920504	35.76788664112257
971336	636858	27425982	OK그린자연테마파크	테마파크	129.08488939846114	35.77191921965084
477510	640866	26412139	오투아일랜드 김제점	워터테마파크	126.90047111752001	35.80440363993675
524515	643517	13591882	키즈킹덤 워터테마파크	워터테마파크	127.10850345004621	35.813952857343544
533443	646309	12273665	전주시청 광장	테마파크시설	127.14803738267416	35.82397594598432
774230	639425	2140116414	고령예마을	테마파크	128.21339719153588	35.79312690581514
869633	639428	10535485	워터파크 스파밸리	워터테마파크	128.63539685158477	35.78813775931913
867588	640819	26621383	에코테마파크 대구숲	테마파크	128.62645443333662	35.79327307357812
867625	640004	17672664	에코테마파크 대구숲 에코어드벤처	테마파크시설	128.62655822031095	35.79033392236644
869751	639352	17576415	스파밸리 워터슬라이드	테마파크시설	128.635913123787	35.787856785777365
869603	639413	17579167	스파밸리 마운틴슬라이드	워터테마파크	128.63526306109344	35.78808551038874
869427	639478	17582839	스파밸리 부메랑&슈퍼볼	워터테마파크	128.6344894520509	35.78833032973672
867571	640671	26621399	에코테마파크 대구숲 야외무대	테마파크시설	128.62636837065338	35.7927407576542
869685	639313	17579166	스파밸리 파도풀	테마파크시설	128.635618342175	35.78772021764058
867633	640487	26621402	에코테마파크 대구숲 가든힐즈로맨틱	테마파크시설	128.62662908246955	35.79207398423942
869781	639309	17582838	스파밸리 다이빙풀	테마파크시설	128.63604262971137	35.78770002582913
867476	640552	26621401	에코테마파크 대구숲 녹차원	테마파크시설	128.6259394438648	35.79231761291931
869295	639503	17582840	스파밸리 정글아쿠아	테마파크시설	128.63390748983176	35.788428355737274
869259	639465	17581891	스파밸리 스피드슬라이드	테마파크시설	128.63374546636783	35.78829358314597
869555	639368	17581890	스파밸리 유수풀	테마파크시설	128.63504744628653	35.78792623637743
867600	640625	26621397	에코테마파크 대구숲 플로라샵	테마파크시설	128.6264932598965	35.7925732564516
867577	640621	26621393	에코테마파크 대구숲 공연장	테마파크시설	128.62639123641907	35.792560218439014
869425	639410	17576416	스파밸리 25m풀	테마파크시설	128.63447558793771	35.78808540578311
532622	655704	10729547	전주드림랜드	테마파크	127.14446458714349	35.85784952391405
853789	657231	10821532	이월드	테마파크	128.5665813103121	35.85322716588362
853542	657105	17580444	이월드 바이킹	테마파크시설	128.56547903036045	35.85278735618397
852735	657545	17985159	이월드 진입광장	테마파크시설	128.5619379449372	35.854419473513644
852714	657431	17985156	이월드 스카이웨이	테마파크시설	128.56183692713677	35.854009862675
853682	656683	17985228	이월드 허리케인	테마파크시설	128.56606882895375	35.85125852848911
853668	656312	17985244	이월드 카멜백	테마파크시설	128.56598056523617	35.84992237301883
853480	656800	17576380	이월드 부메랑	테마파크시설	128.56518298062025	35.851691811401096
853784	656605	17985231	이월드 스카이사이클	테마파크시설	128.56651479334386	35.85097155530819
853260	656980	17580447	이월드 회전목마	테마파크시설	128.56422190626031	35.85235315711754
853122	657040	17576379	이월드 나는코끼리	테마파크시설	128.56361529790993	35.852577330189526
853097	656982	17574806	이월드 미니바이킹	테마파크시설	128.56350053114582	35.85236975720794
853646	656565	806080330	이월드 메가스윙360	테마파크시설	128.56590111526205	35.85083537212662
853319	656928	17580847	이월드 어린이광장	테마파크시설	128.5644793865819	35.852162365058625
853357	657373	17581834	이월드 중앙광장	테마파크시설	128.56467910688545	35.85376380999152
853925	656900	17576390	이월드 타워스카이	테마파크시설	128.56715983924664	35.85202649845649
853717	657039	17580848	이월드 분수무대	테마파크시설	128.56624898943778	35.852539416511874
853453	657285	17985172	이월드 고스트하우스	테마파크시설	128.56509782252377	35.85344115089486
852262	656737	17985210	이월드 독수리편대	테마파크시설	128.55978711665227	35.85153490275793
853382	656967	17580442	이월드 게임월드	테마파크시설	128.56476101622158	35.85229927635412
852262	656737	17985171	이월드 잔디광장	테마파크시설	128.55978711665227	35.85153490275793
853577	657042	17579958	이월드 탬버린	테마파크시설	128.56562949364712	35.852558305666555
853380	656870	17576383	이월드 독수리편대	테마파크시설	128.56474529366338	35.85194983510463
853432	656932	17574799	이월드 범퍼카	테마파크시설	128.564979860971	35.852170264649374
853163	656947	17579961	이월드 풍선타기	테마파크시설	128.56379020183303	35.85223982582459
853682	657653	17580443	이월드 잔디광장	테마파크시설	128.56613758666447	35.854754091346265
853862	656173	17985236	이월드 탑스핀	테마파크시설	128.56682941917333	35.849410265718625
853133	656901	17579957	이월드 닌자거북이	테마파크시설	128.56365415206602	35.85207578521442
853544	656637	672448672	이월드 뮤직익스프레스	테마파크시설	128.56545472421806	35.851100721019584
853260	657107	17579968	이월드 안데르센하우스	테마파크시설	128.56423089763285	35.852810824037924
853357	657130	17985222	이월드 후룸라이드	테마파크시설	128.5646618975675	35.852888116887236
853472	657142	17578400	이월드 웨스턴광장	테마파크시설	128.56517179626564	35.85292472965353
852262	656737	17985212	이월드 어린이광장	테마파크시설	128.55978711665227	35.85153490275793
853180	657070	17574794	이월드 매직열차	테마파크시설	128.56387415808052	35.85268209853663
853836	656352	17985245	이월드 루나호프	테마파크시설	128.56672702680274	35.85005682426495
852262	656737	17985213	이월드 범퍼카	테마파크시설	128.55978711665227	35.85153490275793
852262	656737	17985225	이월드 부메랑	테마파크시설	128.55978711665227	35.85153490275793
852262	656737	17985204	이월드 안데르센하우스	테마파크시설	128.55978711665227	35.85153490275793
853743	656696	890943213	이월드 레인저	테마파크시설	128.56633976192492	35.85130185600314
852262	656737	17985220	이월드 탬버린	테마파크시설	128.55978711665227	35.85153490275793
852262	656737	17985227	이월드 히말리야	테마파크시설	128.55978711665227	35.85153490275793
862221	650933	910529097	고산골공룡공원	테마파크	128.60344837649856	35.83003906624919
864468	650568	1540510753	아르떼 수성랜드	테마파크	128.6133650433967	35.828590652310886
862215	650593	1952418659	공룡공원	테마파크	128.60339717230485	35.828814189034155
864336	650250	18356612	수성아르떼랜드 패딩주 체험동물농장	테마파크시설	128.61275774449567	35.82745254669433
881079	651769	1588214572	아이니테마파크	테마파크	128.68695945214657	35.83190903365584
898335	658177	27455005	펀펀비치 (휴업중)	워터테마파크	128.7638277977906	35.85390276530743
1015492	655838	1338453617	경주월드	테마파크	129.28203031135857	35.836745215763614
1017174	652950	18962384	블루원워터파크	워터테마파크	129.2891720586135	35.826200612637784
1015800	655231	8112042	캘리포니아비치	워터테마파크	129.28333014095057	35.83453280947659
1018582	655260	7970004	신라밀레니엄파크	테마파크	129.29563959347476	35.83440271196503
1015369	658584	13336269	소노벨경주 오션플레이	워터테마파크	129.28176961271103	35.84664709436522
1015667	656047	1100667734	경주월드 드라켄밸리	테마파크시설	129.28282604595987	35.83748335788246
1017564	652678	1200600162	헬로마이디노 상설1호점	테마파크	129.2908689107832	35.825187944169336
1015092	655800	17576135	경주월드리조트 어뮤즈먼트	테마파크시설	129.2802568918588	35.8366419377093
1015546	655447	17579254	경주월드리조트 범퍼카	테마파크시설	129.28222883489653	35.835332230311074
1014875	655637	17582938	경주월드리조트 그랜드캐년대탐험	테마파크시설	129.27928013510822	35.836073002909664
1015370	655805	17576507	경주월드리조트 클라우드라이드	테마파크시설	129.28148720883166	35.83663659634719
1015847	655214	17583211	경주월드리조트 엑스존	테마파크시설	129.28353629548275	35.83446762042849
1015412	655888	17576510	경주월드리조트 바이킹	테마파크시설	129.28168157133297	35.83693204707223
1015126	655763	17579261	경주월드 리조트 메가드롭	테마파크시설	129.28040348314474	35.83650580206243
1015392	655771	17583215	경주월드리조트 문라이트세일	테마파크시설	129.28158102267105	35.83651227410734
1015637	655503	17581975	경주월드리조트 스플래쉬어드벤처	테마파크시설	129.28263716978793	35.83552630252098
1018649	652020	27123636	스파앤휘트니스	테마파크	129.29559965436346	35.82272612582131
1015712	655393	17581526	경주월드리조트 산타모니카비치	테마파크시설	129.2829575881944	35.835123759205985
860981	661659	366507432	스파크랜드	테마파크	128.5987370241644	35.868764581549684
860982	661643	874804865	해피빌런즈	테마파크	128.5987402930384	35.86870686490995
860982	661643	381655379	스파크랜드 대관람차	테마파크시설	128.5987402930384	35.86870686490995
873301	664734	15249778	동촌파크광장 놀이공원	테마파크	128.65351091046767	35.87910694385876
867750	664282	2135377587	주라지테마파크 신세계백화점대구점	테마파크	128.62889877150522	35.877814047911706
1010808	659272	19464673	경주동궁원	테마파크	129.26166060388275	35.84950709249274
1010759	659284	22836504	경주버드파크	테마파크	129.26144503039478	35.84955440146126
1012703	662221	878806091	뽀로로아쿠아빌리지	워터테마파크	129.27034802898436	35.859971753499785
1018289	661136	1674280325	백악기월드	테마파크	129.2949534969814	35.85559358664689
1011253	659403	27335512	동궁식물원 제2관	테마파크시설	129.26364293122188	35.84994188804569
863480	671778	14109099	올브랜물놀이장	테마파크시설	128.6105392286236	35.90508138304712
863971	672528	379073786	루카치키 (2021년예정)	테마파크	128.61276887477365	35.907754858287184
870449	675346	353340902	땅땅랜드 치킨체험테마파크	테마파크	128.64167247788097	35.917520634690455
431009	681689	12697682	은파음악분수	테마파크시설	126.69411870920742	35.951222333358565
906513	685627	26122552	삽사리테마파크	테마파크	128.8022659171741	35.95227384903709
523375	692294	1166035728	왕궁보석테마관광지 다이노키즈월드	테마파크	127.10368691260136	35.98979781899592
650105	696303	19835262	무주 전통공예테마파크	테마파크	127.6659380773545	36.00244627536169
670968	699323	11069210	무주반디랜드	테마파크	127.75859383134983	36.012782678353595
729030	689944	821809975	산내들광장	테마파크	128.01575255382815	35.97707136269274
834537	697748	737633542	행화촌자연테마파크	테마파크	128.48408612874738	36.00032217343538
881457	695428	10260200	대구시민안전테마파크	테마파크	128.69197929243686	35.989207066794165
937340	696518	378342496	홀스파크	테마파크	128.93982890905895	35.98938315474092
440463	700545	8806767	금강하구둑놀이동산	테마파크	126.73580741247625	36.019295934684486
816671	702077	1852509832	꿀벌나라테마공원	테마파크	128.4051271776509	36.016877523283
862202	702125	1793725368	팔공전동테마파트 카트장	테마파크시설	128.60709310535276	36.01451378982947
1027570	701743	203506093	부조장터공원	테마파크	129.34032743472636	36.00106693105972
1054626	702823	210074765	연오랑세오녀테마공원	테마파크	129.46037308887767	36.002555653410106
607566	716191	19901120	개삼터테마공원	테마파크	127.47765439700045	36.07503751040506
952921	715180	27091860	영천수변테마파크	테마파크	129.01060916215107	36.05547956289438
524001	723556	27515366	논산선샤인랜드	테마파크	127.10661556159366	36.10249180464548
523868	723427	667681693	밀리터리체험관	테마파크시설	127.10602413441178	36.102027300989164
528450	728998	8063554	조이랜드	테마파크	127.12640999170415	36.1220902309828
796293	728445	8238428	금오랜드	테마파크	128.31631074922663	36.112931492829624
834553	721745	423276923	가산수피아	테마파크	128.48578130314604	36.086799157631326
834389	721539	803021169	가산수피아 핑크뮬리	테마파크	128.4850392183837	36.0860658286979
460358	735174	24883142	서동요테마파크	테마파크	126.8238117630294	36.1442909138305
460337	735294	1121331744	서동요테마파크 백제왕궁	테마파크시설	126.82371746140512	36.14472335620171
460361	735394	1098340052	서동요테마파크 귀족집	테마파크시설	126.82382332307861	36.14508399622775
460360	735169	1441669435	서동요테마파크 태학사	테마파크시설	126.82382069226321	36.14427290275126
460455	735220	370922288	서동요테마파크 왕비처소	테마파크시설	126.82424250624854	36.1444573694943
517648	730837	641458953	챌린지팜	테마파크	127.07842083028123	36.12876059233061
678296	740496	1543215232	과일나라테마공원	테마파크	127.79259430905518	36.160982258156224
537893	747930	1426129572	딸기향농촌테마공원	테마파크	127.16851326768477	36.190285163738636
594502	744348	7877951	목소리테마파크	테마파크	127.42018487683018	36.1767539418089
604881	744793	146137833	이담산양마을	테마파크	127.46634129137753	36.17818718273337
880685	743880	594914963	삼국유사테마파크	테마파크	128.69229392625803	36.1638431555616
561641	755785	1125952717	벌곡휴게소 교통테마파크	테마파크	127.27422043526063	36.218405383273556
620185	760557	1446759028	서대산안전체험파크	테마파크	127.53477270406813	36.23472654663561
919416	752246	2122046296	석산생태농원모노레일	테마파크시설	128.8651045593907	36.1914284484236
391875	780563	8274926	호텔마스타대천 워터파크(휴업중)	워터테마파크	126.51844480143995	36.307068866281114
477541	779502	21125577	롯데리조트부여 아쿠아가든	워터테마파크	126.89997794233844	36.30417223757727
589420	775242	17573793	대전오월드 레인보우스테이지	테마파크시설	127.39815345086343	36.28819495399843
589458	774637	17580241	대전오월드 눈썰매장	테마파크시설	127.39831156355302	36.28601356238233
589572	775192	17580437	대전오월드 범퍼카	테마파크시설	127.39882931743051	36.288012464913656
589502	775295	17579967	대전오월드 회전목마	테마파크시설	127.39851952936041	36.28838478545756
589755	775120	17580837	대전오월드 와일드스톰	테마파크시설	127.3996428040443	36.287750207976096
589511	775175	17580859	대전 오월드 조이랜드	테마파크시설	127.3985574024305	36.28795209103702
588516	776040	17577448	플라워랜드 미로원	테마파크시설	127.39414283378946	36.29108481909427
589484	774916	17576373	대전오월드 뮤직익스프레스	테마파크시설	127.39843243843409	36.28701888102459
589725	775392	17578411	대전오월드 아프로디테조각공원	테마파크시설	127.3995142271142	36.28873112548509
589375	775052	17578390	대전오월드 후룸라이드	테마파크시설	127.39794960964775	36.287510732863474
590337	774850	17573792	대전오월드 동물병원	테마파크시설	127.4022291629377	36.286768257603356
589462	775080	17579951	대전오월드 보물섬	테마파크시설	127.39833748891026	36.28761037397604
589367	775317	17573486	대전오월드 오월드영상관	테마파크시설	127.39791883968051	36.2884660900707
590017	775442	17574807	대전오월드 스페셜관	테마파크시설	127.40081529470481	36.2889070081329
601294	774658	1931029479	남대전풋살워터파크	워터테마파크	127.45101037837925	36.285902112879256
633912	778600	18385390	옥천 농심테마공원	테마파크	127.59634354886761	36.29947537385299
667975	787800	1518920218	비전력놀이공원	테마파크	127.74834100125169	36.33178341412105
586835	799913	10660880	엑스포과학공원	테마파크	127.3870833575941	36.377163093222684
589722	800111	11749656	대전솔로몬로파크	테마파크	127.39995607911749	36.37783441606333
584783	799079	14515912	캐슬워터파크	워터테마파크	127.37792181987705	36.37418612008017
584848	799603	18082445	과학공원	테마파크	127.37822069720416	36.37607402928706
747405	801065	20910726	호랑이와곶감	테마파크	128.10283209583	36.37685198912048
876373	795708	24586325	의성청년테마파크	테마파크	128.67712091650748	36.35086096324152
1010834	798518	1297787166	산성계곡생태공원 어드벤처	테마파크	129.2762042763055	36.35107462161511
1035068	799182	17563463	삼사해상공원 삼사해상테마랜드	테마파크	129.38417803639396	36.35136090787804
544871	812236	8039826	이안숲속	테마파크	127.2001363047843	36.42204312450264
544741	812164	17575698	이안숲속 물놀이장	테마파크시설	127.1995558101495	36.42178455953478
522028	831888	17554820	공주시농업기술센터 농촌테마공원	테마파크	127.09834020039796	36.49300907760714
669633	830203	17633266	펀파크	테마파크	127.75720870507055	36.48457319682969
778613	823516	27332499	상주밀리터리파크	테마파크	128.2432059512551	36.45639656116616
779669	823657	25933071	경천대국민관광지 출렁다리	테마파크시설	128.24792508884224	36.456855529872314
778869	823193	11143807	경천대랜드	테마파크	128.24432941371572	36.455220629056086
778607	823150	17582947	경천대랜드 귀신의집	테마파크시설	128.24315813010386	36.4550778458608
779329	823419	18598252	경천대국민관광지 조각공원	테마파크시설	128.24639455559512	36.45601367544959
778753	823326	18598254	경천대국민관광지 폭포광장	테마파크시설	128.2438195800677	36.45570532992603
778738	823143	17583272	경천대랜드 날으는공룡	테마파크시설	128.24374213123656	36.45504653035801
777943	823831	1208457114	낙동강자전거이야기촌 (2021년예정)	테마파크	128.240235039843	36.45756286090063
778791	823432	18598260	경천대국민관광지 토끼관찰장	테마파크시설	128.24399520488365	36.45608556666238
778738	823209	25933064	경천대랜드 회전비행기	테마파크시설	128.2437459295552	36.45528438173015
778692	823218	25933066	경천대랜드 사무실	테마파크시설	128.24354123632713	36.4553189544188
778640	823212	18598242	경천대랜드 물놀이보트	테마파크시설	128.24330891325806	36.455299748473685
778770	823185	25933063	경천대랜드 미니바이킹	테마파크시설	128.24388730371896	36.4551964025311
778737	823067	17576564	경천대랜드 바이킹	테마파크시설	128.24373329638894	36.45477268737702
778585	823221	18598239	경천대랜드 체험 및 공연장	테마파크시설	128.24306406974242	36.45533473861383
778697	823155	17579746	경천대랜드 회전목마	테마파크시설	128.24355991674997	36.455091682039516
778712	823127	17582037	경천대랜드 무당벌레	테마파크시설	128.24362522199937	36.454990078114086
778697	823090	17579747	경천대랜드 컨보이	테마파크시설	128.24355617656693	36.454857434451995
778780	823145	17576565	경천대랜드 회전그네	테마파크시설	128.24392961241833	36.45505178522352
534653	834640	8164198	공주훼밀리랜드	테마파크	127.15472191309478	36.50286923002051
679513	834420	871621133	속리산테마파크 모노레일	테마파크시설	127.80146389941888	36.49948446451778
531492	852906	373822880	공주프로방스	테마파크	127.14072768077781	36.56872833285123
395007	854123	1099931563	에덴힐스 힐링파크	테마파크	126.53079979160724	36.57227485143221
606500	862610	25132177	플레이베이	워터테마파크	127.47612244563753	36.60283916904879
715771	854136	17577137	STX리조트 SPA산토리니	워터테마파크	127.96420625348972	36.569345732372945
760002	856871	19791766	함창명주테마파크	테마파크	128.16197337189797	36.57744001669705
759719	856863	1798872912	함창명주테마파크 장미동산	테마파크시설	128.1607084217829	36.57742350646929
760115	856565	1682593879	함창명주테마파크 정자1	테마파크시설	128.1624617524992	36.57633231759911
760090	857186	1604416676	함창명주테마파크 명주길쌈체험 공장동	테마파크시설	128.1623835974258	36.57857139310095
897972	856807	20268181	유교랜드	테마파크	128.77834671196706	36.569606514810886
898565	855902	17790201	온뜨레피움	테마파크	128.7809205073364	36.56630638820764
345745	864585	13592403	안면도쥬라기공원	테마파크	126.31033092416303	36.608913572124415
546307	880835	17580469	베어트리파크 곰조각공원	테마파크시설	127.20720006950319	36.6693029331324
546760	881392	14633397	베어트리파크 향나무동산	테마파크시설	127.20923243531684	36.67130709925331
546888	881540	14633395	베어트리파크 송파원	테마파크시설	127.20980662930018	36.67183955836878
546748	880915	14633450	베어트리파크 반달곰동산	테마파크시설	127.20917408684204	36.66958784432496
546860	881250	14633381	베어트리파크 웰컴하우스	테마파크시설	127.2096785042042	36.6707944725384
546890	880915	14633447	베어트리파크 애완동물원	테마파크시설	127.20980946247566	36.669586726690376
546973	880638	14633456	베어트리파크 전망대	테마파크시설	127.21017812878358	36.668587623593304
546520	881194	14633420	베어트리파크 아이리스원	테마파크시설	127.20815661474705	36.670595288980856
546405	880875	17576200	베어트리카페	테마파크시설	127.20763895397448	36.669446349713546
546565	881375	14633400	베어트리파크 만경비원	테마파크시설	127.20835972776801	36.67124735240564
546413	881117	14633423	베어트리파크 수련원	테마파크시설	127.20767709366726	36.67031857786195
546952	881579	14633389	베어트리파크 게이트하우스	테마파크시설	127.21009338628716	36.671979629200415
610061	877431	17811095	에듀피아워터랜드	워터테마파크	127.49238157658887	36.656195634474955
615843	876238	8271433	청주랜드	테마파크	127.51821884601264	36.6517858601154
737035	877880	1014809269	문경에코랄라	테마파크	128.06038475076016	36.6541115432085
737347	877455	9822463	가은모노레일	테마파크	128.06175924520477	36.652567444600514
423263	887761	7835316	스플라스 워터파크	워터테마파크	126.65653209243915	36.69395269857879
423108	887783	17583084	스플라스리솜 플렉스타워	워터테마파크	126.65583798428477	36.694029993190014
423229	887760	17576663	스플라스리솜 써니레이	워터테마파크	126.65637993001876	36.69394865504144
838293	891798	27405012	예천충효테마공원	테마파크	128.51422702575766	36.699368799585564
911713	891769	654182115	한국문화테마파크 (2021년말예정)	테마파크	128.8427180785004	36.6946320800395
564454	900696	12079048	천안상록리조트 아쿠아피아	워터테마파크	127.2886653882744	36.740722230026634
564587	900325	17579780	상록리조트 상록랜드	테마파크	127.28925602091485	36.73938353591906
741704	902665	410207018	문경오미자테마공원	테마파크	128.08252019387885	36.74324566051172
860589	900895	1853671057	웹툰방탈출테마파크	테마파크시설	128.61467688763958	36.73083498177838
308909	913887	306177143	만리포비치랜드	테마파크	126.14368477166163	36.78553660079041
355247	911312	925560252	라라파크	테마파크	126.35139839447271	36.77756927359747
452166	914767	2019917131	합덕제지구 농어촌테마공원	테마파크	126.78562769960195	36.79159766460056
474602	907649	8115771	파라다이스스파도고	워터테마파크	126.88621428799918	36.76607985588337
474506	907771	1720503534	파라다이스스파도고 키즈랜드	테마파크시설	126.88578354651045	36.766519188456535
531323	909570	1584272511	잭슨나인스 휴브릿지잭슨타운(예정)	테마파크	127.1403428887231	36.77297567428298
550026	905260	359473302	소노벨천안 오션어드벤처	워터테마파크	127.22409611207286	36.757312152180056
636618	912480	1575790225	증평농심테마파크	테마파크	127.61218615119468	36.781972191625854
692236	908362	27561158	괴산자연드림파크 1단지	테마파크	127.86122287335027	36.765587136677134
692663	909175	908213436	괴산자연드림파크	테마파크	127.86316849200539	36.76850337642539
848655	910206	12664515	장수조이월드	테마파크	128.561936064398	36.76509673826433
528426	916734	9107853	아이들놀이동산	어린이집	127.12740563496864	36.798812563850454
658925	917651	226869459	꿀벌랜드	테마파크	127.71230996689054	36.80005301324045
370442	927190	1990507016	다울농원	테마파크	126.41904780476345	36.83514945633222
495674	932602	10592255	아산스파비스	워터테마파크	126.98059636359852	36.856074384580936
495467	932542	18049576	아산온천스파비스 파도풀	테마파크시설	126.97966795289359	36.85585796437895
495612	932671	18049577	아산온천스파비스 아쿠아플레이	테마파크시설	126.98031820796935	36.856323043624066
495508	932747	18049583	아산온천스파비스 슬라이드	테마파크시설	126.97985165788604	36.85659690113951
495632	932708	18049582	아산스파비스 익사이팅리버	테마파크시설	126.98040788127331	36.85645642186258
526681	927783	531606627	마치파크	테마파크	127.11964651594771	36.838646053177065
683345	928947	1438829701	괴산자연드림파크 2단지	테마파크	127.8221875052882	36.840058722350406
683573	928980	328945567	오가닉테마파크	테마파크	127.82321112152657	36.84017058116638
460417	942114	15315811	삽교호놀이동산	테마파크	126.82237729639452	36.8902283318549
460473	942007	143538080	삽교호놀이동산 은산희귀조각전시관	박물관	126.82262947904847	36.88984303864102
484060	938038	17985206	피나클랜드 메타세콰이어로드	테마파크시설	126.92848524083853	36.87564803078117
483576	937153	17560304	피나클랜드 워터가든	테마파크시설	126.92631684199402	36.87245680743855
483843	937365	17985243	피나클랜드 레인보우가든	테마파크시설	126.92751396392667	36.873221677683254
483653	937306	17985248	피나클랜드 윈드밀가든	테마파크시설	126.92666176042682	36.8730084949204
601720	952778	119824136	어드벤쳐월드원	테마파크	127.45667652384928	36.927920363712076
484770	957165	18420232	현덕워터랜드	테마파크	126.93160913561358	36.94459091372211
708190	961290	1973680995	잭슨나인스 충주점	테마파크	127.93501011529642	36.95579736898404
853583	957528	1062483717	한국문화테마파크 (2022년예정)	테마파크	128.58752775764205	36.93530779412462
853583	957525	264853344	선비세상 (2022년9월예정)	테마파크	128.58752753339755	36.93529698517955
520681	970755	14518767	플레이뱅크 미키와친구들	놀이시설	127.09292827543497	36.993557326018184
532770	971068	1406609751	아쿠아필드 안성(휴업중)	워터테마파크	127.14725118776839	36.99463052546127
543068	970167	17202018	안성팜랜드	테마파크	127.19351655765036	36.99131661869524
542742	969938	2098315670	안성팜랜드 조류관	테마파크시설	127.19204968087398	36.99049360944643
543290	969766	1743363487	안성팜랜드 익싸이팅파크	테마파크시설	127.19451038005681	36.989869658288775
702055	970530	27572022	충주라바랜드	테마파크	127.90785562829461	36.98931108024283
701740	970725	454189825	충주라이트월드	테마파크	127.90644879913661	36.990024652602855
751440	973229	27486107	청풍지구농어촌테마공원	테마파크	128.12985642711612	36.99713312139969
803158	968297	8218350	소노문단양 오션플레이	워터테마파크	128.36188192715662	36.97692229075295
803280	968524	14094948	소노문단양 미니파크	테마파크	128.36244443366084	36.977733957226434
798793	975280	12697642	도담삼봉 음악분수	테마파크시설	128.34272018414333	37.002307736846255
870139	973618	26459483	사과테마파크	테마파크	128.66309433176013	36.99226067180089
1035230	970985	927805019	울진왕피천공원	테마파크	129.40407380462116	36.97007434425423
507246	986335	20166047	하나농원 숲속워터파크	워터테마파크	127.03258325968923	37.049744475152416
568992	981814	21606099	안성맞춤랜드	테마파크	127.31016961676528	37.033048507259075
628259	981924	17342173	큰바위얼굴테마파크	테마파크	127.57661178176167	37.03244936287312
1034319	977300	12273681	울진군청 광장	테마파크시설	129.40069996364682	36.99289849362793
505290	1003643	27608340	포시즌애견테마파크	테마파크	127.02380716764677	37.11212944284097
597229	998636	13323756	안성내츄럴리조트 원더풀	워터테마파크	127.43746076125953	37.09327839741579
676507	999495	924612869	오대호아트로봇테마파크	테마파크	127.7941630028231	37.0945220553312
950022	1005318	15099331	국민 안전체험테마파크 365세이프타운	테마파크시설	129.02486795861424	37.10087583235759
517248	1013888	138410554	오산버드파크	테마파크	127.07766076204639	37.14903193220058
581282	1013246	27318757	용인곤충테마파크	테마파크	127.36596554405315	37.14617847875424
757769	1013939	11634504	제천한방엑스포공원	테마파크	128.16052423777032	37.14355942495484
841495	1011078	27259887	영월아트미로	테마파크	128.53715723395248	37.128962062732164
415196	1018315	15667340	제부비치랜드	테마파크	126.61808537208118	37.16439791780556
415236	1018690	26625219	제부랜드	테마파크	126.61825871092981	37.165750054005265
431976	1023355	8621830	하내테마파크	테마파크	126.69357961225491	37.182782385118806
475247	1019317	26640045	하피랜드 워터파크	워터테마파크	126.88851858158199	37.16857231702597
521720	1027269	167186385	아르티스테마파크	테마파크	127.09785852030502	37.19724508102053
566237	1020420	1125507111	용인농촌테마파크	테마파크	127.29832918359818	37.17222468284033
566195	1020452	17582885	용인농촌테마파크 방문자센터	테마파크시설	127.29814047251017	37.17234049254809
566251	1020285	17581805	용인농촌테마파크 작물학습포	테마파크시설	127.2983903250662	37.17173796034393
752964	1018191	26084214	제천승마놀이동산	테마파크	128.13912500353203	37.159091426527425
752969	1018178	956124109	제천캠핑랜드	글램핑장	128.13914681203758	37.159044364383476
768341	1022822	10800908	의림지파크랜드	테마파크	128.20862144923623	37.17509314442703
811232	1023272	583492333	펫힐링달빛동물원	테마파크	128.40178555592854	37.17458691102988
953751	1022045	1340119321	통리탄탄파크	테마파크	129.04325677829297	37.1608380676277
952640	1025395	1340041784	오로라파크	테마파크	129.03858100666972	37.17299070499485
952589	1024767	38681186	태양의후예 공원	테마파크	129.03829066224705	37.17073263848739
509251	1032111	1559624738	실내놀이동산	놀이시설	127.04168960130585	37.21472971690014
534833	1037229	20401631	로만바스	워터테마파크	127.15701278559807	37.23307923096355
836628	1036097	347644416	탑스텐리조트 동강시스타 워터챌린지	워터테마파크	128.5170582484302	37.21938648916904
903135	1035030	559518059	하이원 워터월드	워터테마파크	128.8165624654787	37.21132547464883
952661	1027901	24274082	하이원추추파크	테마파크	129.03891819762916	37.18201552388335
951144	1031146	2089379459	도계유리나라	테마파크	129.03240244619099	37.19382119194844
950653	1031427	239198193	도계나무나라	테마파크	129.03021887214308	37.19487125695445
952572	1028437	26456262	하이원추추파크 오토캠핑장	테마파크시설	129.03856945389887	37.183953055402604
952947	1027945	64289212	하이원추추파크 스위치백트레인	테마파크시설	129.0402099454843	37.18215183755335
952459	1028241	320933220	하이원추추파크 네이처빌	테마파크시설	129.03804177260614	37.183255831772904
952623	1028340	479613073	하이원추추파크 큐브빌	테마파크시설	129.03878965109087	37.18359971613565
952652	1027982	677709370	하이원추추파크 체크인센터	테마파크시설	129.03888552761464	37.18230797773143
952811	1027992	1176087471	정글대탐험 하이원추추파크점	테마파크시설	129.03960226825248	37.18233167294248
952813	1027999	900596088	하이원추추파크 추추스테이션	테마파크시설	129.03961194990154	37.18235673139711
952812	1028261	1328401790	하이원추추파크 트레인빌	테마파크시설	129.0396328338978	37.183300514206735
952713	1027783	2095127174	하이원추추파크 미니트레인	테마파크시설	129.03914085546413	37.18158646603416
526542	1044015	17576648	한국민속촌 놀이마을	테마파크시설	127.11967913590509	37.257580794489556
526065	1044035	19197283	한국 민속촌 세계민속관	테마파크시설	127.11752843645633	37.25765503226332
524452	1046915	710341599	경기뮤지엄파크	테마파크	127.11027048094975	37.268042016873935
526739	1044068	17580825	한국민속촌 충현서원	테마파크시설	127.12056772089993	37.257770914017264
527535	1044750	17579944	한국민속촌 장터	테마파크시설	127.12416095854182	37.26022524409918
526815	1044762	17576602	한국민속촌 야외공연장	테마파크시설	127.12091440679559	37.260271854158546
527167	1044877	17580553	한국민속촌 전통혼례식장	테마파크시설	127.12250231590552	37.260684701257496
527116	1044433	17573786	한국민속촌 전통민속관	테마파크시설	127.12226975882943	37.259084690616454
526965	1045008	19197315	한국민속촌 너와집	테마파크시설	127.12159221182824	37.26115778546589
526557	1044592	17581604	한국민속촌 중부지방민가한약방	테마파크시설	127.11975006352635	37.25966032877826
526547	1044681	17583002	한국민속촌 남부지방농가목기공방	테마파크시설	127.11970547952669	37.25998114491381
526619	1044567	19197303	한국민속촌 효열문	테마파크시설	127.12002948861436	37.25956994160587
527267	1044460	17581809	한국민속촌 제주도민가	테마파크시설	127.12295079525863	37.25918129793918
526063	1044224	17575375	한국민속촌 양반장	테마파크시설	127.11752047660896	37.25833622835239
527361	1044752	17577432	한국민속촌 북부지방농가악기공방	테마파크시설	127.12337637030203	37.260233272607145
527490	1044740	17575497	한국민속촌 도깨비집	테마파크시설	127.12395798568896	37.2601894150884
526252	1043680	17583355	한국민속촌 조각광장	테마파크시설	127.11836962550073	37.256374713631274
527310	1044552	17576068	한국민속촌 울릉도민가	테마파크시설	127.12314522779216	37.259512679448385
526896	1044761	19197319	한국민속촌 승마체험장	테마파크시설	127.12127964610174	37.26026787642767
527399	1044482	17580430	한국민속촌 중부지방민가짚신공방	테마파크시설	127.12354613034445	37.259259969952254
526140	1043912	17583301	한국민속촌 볼케노광장	테마파크시설	127.11786592398207	37.25721138379624
526285	1044507	17581591	한국민속촌 서낭당	테마파크시설	127.11852309130985	37.2593552089915
526437	1044380	17575388	한국민속촌 대장간	테마파크시설	127.11920775990664	37.25889679209796
526427	1044537	17581810	한국민속촌 북부지방농가무명베틀	테마파크시설	127.11916356013283	37.25946269120671
526123	1044427	19197293	한국 민속촌 한국관	테마파크시설	127.11779216091836	37.25906760486054
526568	1044557	19197286	한국 민속촌 민속반점	테마파크시설	127.1197994645291	37.259534132879764
527180	1044980	17577208	한국민속촌 양반가	테마파크시설	127.12256153731813	37.2610558693113
526947	1044896	17581603	한국민속촌 남부지방민가동고리공방	테마파크시설	127.12151039683488	37.260754202603415
527012	1045017	19197316	한국민속촌 굴피귀틀집전통연만들기체험	테마파크시설	127.1218041988746	37.26119000508398
526189	1044489	17573731	한국민속촌 옹기생활관	테마파크시설	127.11809011216693	37.259290766578154
526559	1044416	19197312	한국민속촌 남부지방농가온돌방체험	테마파크시설	127.11975807758023	37.25902598685683
526366	1044354	19197296	한국민속촌 농기구전시장	테마파크시설	127.11888746532529	37.258803405729594
526569	1044541	19197318	한국민속촌 내자원사극촬영체험	테마파크시설	127.11980388235148	37.25947646170072
526742	1044230	17577262	한국민속촌 그네터	테마파크시설	127.12058217874483	37.258354774859825
526951	1044646	17582776	한국민속촌 남부지방민가서당	테마파크시설	127.12152698609947	37.25985314338739
527484	1044778	19197321	한국민속촌 탈춤전시관	테마파크시설	127.12393115492294	37.26032640158639
526919	1045008	17583014	한국민속촌 남부지방민가점술집	테마파크시설	127.12138478626636	37.26115799830572
526312	1044344	19197299	한국민속촌 옛날농방	테마파크시설	127.11864391677851	37.258767608331034
526288	1044579	19197300	한국민속촌 낙화집	테마파크시설	127.11853702539179	37.25961469523633
526473	1044452	19197311	한국민속촌 중부지방민가가마니짜기체험	테마파크시설	127.11937049761694	37.25915612835124
526472	1044632	19197302	한국민속촌 남부지방민가죽기공방	테마파크시설	127.11936701222221	37.25980488234589
527153	1044552	17577441	한국민속촌 통방아	테마파크시설	127.12243729075989	37.259513413642246
576440	1041552	13720973	스타독	테마파크	127.3446286437503	37.24826268791552
587138	1039903	527614700	별빛정원 우주	테마파크	127.3928286026704	37.242169339460816
589984	1046126	1279576536	마장키즈파크	테마파크	127.40577869509914	37.26455430234306
636773	1040660	1016273103	여주팔도한마당 (2023년3월예정)	테마파크	127.61660170943348	37.243943900231514
636194	1038759	27402531	반려동물테마파크 (2022년3월예정)	테마파크	127.61393602002191	37.23710630542053
799804	1041130	1455589084	포이베	테마파크	128.35147443118197	37.23953051749599
386302	1050957	375852900	대관랜드	테마파크	126.48716953114392	37.28155051765414
405682	1052172	18059240	대부바다향기테마파크	테마파크	126.57455520145577	37.2862758654887
405837	1049371	18118857	대부바다향기테마파크 화훼단지	테마파크시설	126.57531107628105	37.27618340741582
405094	1049379	18118860	대부 바다향기테마파크 유보지	테마파크시설	126.57195995923036	37.27620017080894
406477	1052305	18118850	대부바다향기테마파크 진입광장	테마파크시설	126.57813848162783	37.2867680396249
406660	1051027	18118877	대부 바다향기테마파크 기존염생식물군락지1	테마파크시설	126.57898959384947	37.2821649917386
407545	1051975	18118892	대부 바다향기테마파크 갯벌	테마파크시설	126.58296243924163	37.28559577121785
407362	1051712	18118887	대부 바다향기테마파크 맨발체험장	테마파크시설	126.58214224066668	37.28464499244106
406882	1052180	18118890	대부바다향기테마파크 기존염생식물군락지2	테마파크시설	126.57996780599808	37.28632402910326
454637	1050836	126357748	화성국제테마파크 (2026년예정)	테마파크	126.79538996251341	37.28204845504814
464615	1057658	1415904871	시아테마파크	테마파크	126.84034364647	37.30670510834102
464634	1057633	1762610441	자이언트제트	테마파크	126.84042956415472	37.30661512074517
470363	1054932	2139062268	옥상놀이동산	놀이시설	126.86629582111964	37.29691238006069
489615	1057733	191228513	레솔레파크	테마파크	126.95314286129499	37.30707383564139
498614	1054985	25102245	수원라이프스포츠 워터파크	워터테마파크	126.99374718458577	37.29717875499552
498613	1054985	12808757	맥스라이더 실내놀이동산	놀이시설	126.99374267317496	37.2971787547571
526302	1048873	1467513788	하이브패밀리테마파크	테마파크	127.11862442806112	37.27509089032699
544822	1053902	784414359	에버랜드	테마파크	127.20219943438913	37.293102915827575
544551	1055013	8004914	캐리비안베이	워터테마파크	127.20098756839623	37.297109183582414
543909	1052763	21555326	에버랜드 홈브리지캐빈호스텔	테마파크시설	127.1980700017622	37.28900477544001
545442	1053341	17579421	에버랜드 사파리월드	테마파크시설	127.20499085450282	37.291076188734806
544961	1053021	17574845	에버랜드 T익스프레스	테마파크시설	127.2028179590428	37.289926605097115
544960	1053900	17573502	에버랜드 판다월드	테마파크시설	127.20282195224155	37.293094642442085
544748	1053778	26303200	에버랜드 스카이웨이	테마파크시설	127.20186441597912	37.29265657368469
548030	1052900	1577681020	에버랜드 리조트지원센터	테마파크시설	127.21666080416892	37.28946597434388
545426	1053929	17573481	에버랜드 타이거밸리	테마파크시설	127.20492442614471	37.29319554121282
543820	1052970	17573506	에버랜드 신관	테마파크시설	127.19767048373308	37.289751501824625
544375	1055490	17580472	캐리비안베이 와일드리버풀	워터테마파크	127.20019812197845	37.29882969730172
544446	1054510	1688739521	에버랜드 하늘매화길	테마파크시설	127.20050906170333	37.29529711120451
543978	1053315	17574815	에버랜드 장미원	테마파크시설	127.19838647701876	37.29099373459188
544615	1053877	17579759	에버랜드 롤링엑스트레인	테마파크시설	127.20126538849021	37.293014404165326
544021	1053924	17581646	에버랜드 썬더폴스	테마파크시설	127.19858621969982	37.29318832439021
545400	1053484	17580464	에버랜드 아마존익스프레스	테마파크시설	127.20480278879057	37.29159190714308
544618	1053661	26584346	애버랜드 시크릿쥬쥬비행기	테마파크시설	127.20127684791845	37.2922358893058
544237	1053685	17576039	에버랜드 범퍼카	테마파크시설	127.19955835182735	37.29232529864297
544006	1053582	1175080449	에버랜드 피크닉	테마파크시설	127.19851531377628	37.29195582559367
545443	1054230	17580861	에버랜드 에버마트	테마파크시설	127.20500405931573	37.294280250761304
544693	1053833	17574820	에버랜드 락스빌	테마파크시설	127.20161683376354	37.29285522365545
544190	1054305	1775557849	에버랜드 바이킹	테마파크시설	127.19935222663575	37.2945602158026
544778	1053863	17580467	에버랜드 더블락스핀	테마파크시설	127.20200056844138	37.29296269373366
544185	1054308	17580275	에버랜드 콜럼버스대탐험	테마파크시설	127.19932969902871	37.294571066175926
544585	1055534	17582945	캐리비안베이 아쿠아루프	테마파크시설	127.2011459554185	37.29898667246694
544425	1053313	17808409	에버랜드 포시즌스가든	테마파크시설	127.20040288116546	37.290983129489256
544445	1054160	17579429	에버랜드 레이싱코스터	테마파크시설	127.20050120251841	37.2940356741018
544610	1054908	17581656	캐리비안베이 파도풀	테마파크시설	127.20125273153022	37.29673029802408
544495	1053593	400261610	에버랜드 글램핑힐	테마파크시설	127.20072133300921	37.29199175076052
544897	1053242	26584371	에버랜드 매직타임레스토랑	테마파크시설	127.20253139328335	37.29072361217113
545256	1053328	26370725	에버랜드 안내및티켓판매소	테마파크시설	127.2041516786235	37.29103078520429
544803	1053305	17575582	에버랜드 카니발광장	테마파크시설	127.20210796690996	37.29095139714801
545665	1053690	21515575	에버랜드 창조관	테마파크시설	127.2060002408408	37.29233228309382
544928	1054782	17576044	에버랜드 피크닉에어리어	테마파크시설	127.2026861242411	37.29627373004139
545093	1053653	17573718	에버랜드 애니멀원더스테이지	테마파크시설	127.20341953678192	37.29220339308535
544097	1053839	17580273	에버랜드 플래쉬팡팡	테마파크시설	127.19892826010957	37.29288139768668
544409	1054913	17577138	캐리비안베이 슬라이드빌리지	워터테마파크	127.20034599670362	37.29674985705726
544923	1053480	17580360	에버랜드 슈팅고스트	테마파크시설	127.20265097987445	37.291581194250696
545445	1053758	17580247	에버랜드 씨라이언스타디움	테마파크시설	127.20500846553044	37.292579086910514
544513	1055153	21516071	락카카트	테마파크시설	127.20081747739187	37.297614052233165
543807	1053320	17576961	에버랜드 장미의성	테마파크시설	127.19761514066492	37.29101304562462
544288	1053125	17580358	에버랜드 홀랜드빌리지	테마파크시설	127.19978308074015	37.290306597704365
544702	1053514	17579829	에버랜드 비룡열차	테마파크시설	127.20165436521803	37.29170543732541
544806	1054173	17576014	에버랜드 키즈커버리	테마파크시설	127.20212986931897	37.2940797578346
545405	1053595	26303157	에버랜드 뿌빠타운	테마파크시설	127.20482642857901	37.291991926392136
547995	1053057	12121045	삼성웰스토리 조리아카데미	테마파크시설	127.21650454337639	37.29003211119765
546661	1048483	210068220	수풀로 영문리	테마파크	127.21044102731184	37.27355765882752
544445	1053703	17580265	에버랜드 자동차왕국	테마파크시설	127.20049683141305	37.29238858727147
544710	1055195	17576550	캐리비안베이 나비오	워터테마파크	127.20170662914644	37.29776391422543
544695	1053779	17580277	에버랜드 스타라이트드라이브인	테마파크시설	127.20162533662102	37.29266058533366
600157	1049374	26642988	미란다호텔이천 스파플러스	워터테마파크	127.45172206222631	37.276094150772096
594036	1049254	17384476	토야흙놀이공원	테마파크	127.42411378375813	37.27576378557973
594285	1049430	17384578	토야랜드	테마파크	127.42524034389724	37.27639407182722
606773	1049579	26925208	서희테마파크	테마파크	127.48156492058564	37.276715357657146
646638	1054532	25019533	썬밸리호텔 워터파크	워터테마파크	127.66150983325639	37.293697629071325
564019	1067247	1546189301	화담숲 모노레일 1승강장	테마파크시설	127.28898348568767	37.341019881169814
707185	1066535	14918317	원주한지테마파크	테마파크	127.93515536099767	37.335110750094984
707173	1066489	21352730	원주한지테마파크 카페테리아	테마파크시설	127.93509914906633	37.334945410547974
433840	1070917	477164316	패밀리테마파크	테마파크	126.70129970710174	37.35422281121095
502070	1076851	563859655	바운스 트램폴린 파크 의왕센터	테마파크	127.00934838205026	37.37598633431487
511501	1070893	14819344	코코몽에코파크 용인점	테마파크	127.05192516345392	37.35450203871322
511458	1071284	375372743	다이노스타	테마파크	127.05173199254278	37.35591133137971
572509	1070118	19677776	곤지암도자공원	테마파크	127.32735195271366	37.351267318100284
571756	1069698	26873191	팀업캠퍼스	테마파크	127.32394597543252	37.349762971991915
685428	1074084	25045320	원주레일파크	테마파크	127.83726462831348	37.36305073985782
693252	1077237	82876405	잭슨나인스 원주점(22년예정)	테마파크	127.87272034519502	37.37415782822685
812800	1072635	529759518	반려동물관광테마파크 (2024년예정)	테마파크	128.41216350696837	37.35236170356157
423246	1085506	27477755	송도테마파크 (2025년예정)	테마파크	126.65322846267613	37.40667158356084
524806	1081530	26945013	패밀리가든	테마파크	127.1120520301156	37.39279717586028
600369	1087610	26989624	여주어드벤처파크	테마파크시설	127.45350618634056	37.41389328111243
602139	1084201	1476373647	루덴시아	테마파크	127.46142814287089	37.40157642093847
995176	1085714	532568204	래빗라운드	워터테마파크	129.23644729765132	37.38677475417613
379927	1094009	633734533	파라다이스시티 원더박스	테마파크	126.45730039765127	37.436579665026834
434072	1098040	155113289	미션레이스	테마파크	126.70196021606363	37.45197769035603
432314	1093162	13603554	문학워터파크	워터테마파크	126.69408453525377	37.434377031841464
456208	1096290	1075023989	워너두 칠드런스 뮤지엄	테마파크	126.80204605565058	37.44588062166787
453916	1095257	9208284	아마존놀이동산	놀이시설	126.79169585991951	37.442139847188415
504198	1092890	8360993	서울랜드	테마파크	127.01897326939664	37.43379106267896
504404	1090987	7939405	서울대공원	테마파크	127.01990249052977	37.42693237032748
503364	1092074	12678223	서울대공원 장미원	테마파크시설	127.01520333058103	37.43085068994326
503286	1090546	12631101	서울대공원 산림욕장	테마파크시설	127.0148497280205	37.42534371832455
504583	1092678	17573708	서울랜드 카트라이더범퍼	테마파크시설	127.02071310370535	37.43302670879888
502091	1092306	13705744	과천서울대공원 스카이리프트출발지	테마파크시설	127.00945021348385	37.43168743330835
505431	1093685	1856668202	서울랜드 관리동	테마파크시설	127.02454686815456	37.43665526755169
503074	1093615	1820710591	서울대공원	테마파크	127.01389372520251	37.436404715377606
505070	1092960	1587547045	서울랜드 쥬라기랜드	테마파크시설	127.02291443487356	37.43404264891447
503995	1092558	1036359154	서울랜드 니나노고카트	테마파크시설	127.01805550377465	37.432594656746396
504013	1092460	17580798	서울랜드 급류타기	테마파크시설	127.01813677000854	37.43224144585919
503800	1093241	1814434456	서울랜드 피크닉존	테마파크시설	127.01717475880588	37.43505636433682
504867	1093274	17580823	서울랜드 은하열차888	테마파크시설	127.02199728480966	37.43517449937559
505278	1093158	17577442	서울랜드 블랙홀2000	테마파크시설	127.0238547406531	37.43475606767067
503981	1093220	1814344309	서울랜드 베스트키즈	테마파크시설	127.01799280153193	37.434980557298566
504313	1092873	17580233	서울랜드 지구별	테마파크시설	127.0194930071681	37.433729709008574
504535	1093098	17576233	서울랜드 착각의집	테마파크시설	127.02049657801278	37.43454045381269
504020	1092540	17575723	서울랜드 킹바이킹	테마파크시설	127.01816847622341	37.43252976625399
504274	1093308	17807358	서울랜드 삼천리대극장	테마파크시설	127.01931714593752	37.435297505932084
504433	1092625	17583361	서울랜드 빅회전목마	테마파크시설	127.02003512013324	37.43283581018753
504448	1092751	1796107448	서울랜드 로맨틱가든	테마파크시설	127.0201030346747	37.433289910894004
504025	1092575	17573772	서울랜드 사격장	테마파크시설	127.01819110435612	37.43265590507235
504948	1092830	17576232	서울랜드 또봇트레인	테마파크시설	127.02236290280601	37.43357422610656
504438	1092948	17575563	서울랜드 베니스무대	테마파크시설	127.02005802846661	37.43399991934798
504268	1092696	17576353	서울랜드 통나무무대	테마파크시설	127.01928946176324	37.43309182286534
504775	1092883	17575273	서울랜드 라바트위스터	테마파크시설	127.02158106962693	37.43376538687778
505083	1093163	17581606	서울랜드 둥실비행선	테마파크시설	127.02297341344423	37.43477426256669
504550	1093448	17577438	서울랜드 샷드롭	테마파크시설	127.02056471777031	37.43580186440621
504090	1093096	17579753	서울랜드 도깨비바람	테마파크시설	127.01848533549965	37.43453357732089
504585	1093157	17582787	서울랜드 출동슈퍼윙스	테마파크시설	127.0207226187408	37.43475305420095
504849	1092932	17581616	서울랜드 캐니멀서커스	테마파크시설	127.02191557117851	37.433941924512744
504946	1092959	1248588879	서울랜드 바베큐가든	테마파크시설	127.02235400190351	37.434039152162825
504947	1093226	1533911107	서울랜드 이벤트홀	테마파크시설	127.02235880776041	37.4350014364669
504945	1093263	17579867	서울랜드 미래의나라	테마파크시설	127.02234980807287	37.43513478854183
504825	1093020	17576164	서울랜드 뭉게공항액션존	테마파크시설	127.02180719264778	37.43425910225283
504143	1092925	17577304	서울랜드 다롱이집	테마파크시설	127.01872472298169	37.433917244583476
505014	1093000	17573768	서울랜드 록까페	테마파크시설	127.02266138006038	37.43418686028763
504197	1092893	11138676	서울랜드 다이빙썸머	테마파크시설	127.01896875252815	37.43380187559867
504999	1092977	17576349	서울랜드 붕붕카	테마파크시설	127.02259356083259	37.434103979781966
504604	1093248	1487418316	서울랜드 스카이엑스	테마파크시설	127.02080858297967	37.435081008944564
503708	1091250	17583324	과천서울대공원 홍학사	테마파크시설	127.01675734920265	37.427880728115134
504175	1092555	17580799	서울랜드 티키톡열차	테마파크시설	127.01886901558414	37.43258371749009
504418	1092558	17579414	서울랜드 운칠기삼	테마파크시설	127.01996726289671	37.43259434927508
504211	1093262	17576005	서울랜드 화랑활터	테마파크시설	127.01903236363643	37.43513176518191
504788	1093133	17581545	서울랜드 달나라열차	테마파크시설	127.0216400837691	37.43466639225341
504943	1093039	962416722	서울랜드 바베큐라운지	테마파크시설	127.02234052876341	37.43432747988393
504063	1092642	17579422	서울랜드 해적소굴	테마파크시설	127.01836290544006	37.432897350900994
504688	1093168	17579854	서울랜드 타임머신	테마파크시설	127.02118815436529	37.43479261637788
504540	1092735	17582127	서울랜드 깜부비행기	테마파크시설	127.02051881908713	37.43323217440721
504473	1092690	17582785	서울랜드 피터팬	테마파크시설	127.02021596472012	37.43307004365095
730642	1096178	22425600	허스키랜드	테마파크	128.04249442404503	37.44104501549588
745355	1092825	367665442	횡성루지체험장	테마파크	128.10880738706084	37.428357635198786
410730	1103530	18097858	월미테마파크	테마파크	126.59633409599145	37.4714502128003
411300	1104468	7866176	마이랜드	테마파크	126.59889342986429	37.47483949694432
411160	1104514	9323588	월미놀이동산	테마파크	126.59825946854768	37.475003127929085
411375	1105166	27445991	월미문화의거리역	테마파크시설	126.59921914329148	37.47735620534328
446953	1099608	11320114	인천대공원	테마파크	126.7601726047608	37.45776129565217
476344	1103599	9097090	샛별어린이집	어린이집	126.89302953854188	37.47233997191764
527593	1105788	2141690292	워터킹덤 송파파크하비오점	워터테마파크	127.12478632833825	37.480211736996786
603866	1101916	1210579507	R401디스커버리파크	테마파크	127.46962860792117	37.465389583175366
978670	1108807	62355688	쏠비치삼척 오션플레이	워터테마파크	129.1643420591672	37.47133015615675
414044	1116906	22440241	인천로봇랜드	테마파크	126.61106928242955	37.51970680958532
413275	1118110	26152117	인천로봇랜드 (2024년 예정)	테마파크	126.60756708624287	37.524034427903594
443438	1111320	17183821	웅진플레이도시	테마파크	126.74413742716247	37.49993804272731
443474	1111520	611505585	웅진플레이도시 워터도시	워터테마파크	126.74429781650724	37.50065919299337
443458	1111329	1961220214	볼베어파크	테마파크	126.74422778724367	37.499970674540165
443589	1113920	7907152	부천영상문화단지	테마파크	126.7447885859621	37.50930988334112
444020	1114404	12543865	프레니월드	테마파크	126.74673258029844	37.51105840788818
443438	1111327	18059593	웅진플레이도시 신기도시	테마파크시설	126.74413734108096	37.49996327064683
455469	1112699	8032094	원더존	테마파크	126.79854688204016	37.50501329785389
469365	1110494	2008661123	어린이대공원아이랜드놀이동산	공원시설물	126.86142526712676	37.497156929008895
521675	1114413	27560699	롯데월드	테마파크	127.0980634971449	37.51132165954965
521713	1114292	16875138	롯데월드 어드벤처	테마파크	127.09823484755479	37.51088543119451
522121	1113690	17384522	매직아일랜드	테마파크	127.10007783869442	37.50871426581978
522097	1113763	17582054	롯데월드 매직캐슬	테마파크시설	127.09996961106582	37.508977450753356
522044	1113565	17580828	롯데월드 자이로스윙	테마파크시설	127.09972888336489	37.50826405871514
522230	1113693	14652356	롯데월드 자이로드롭	테마파크시설	127.10057098050302	37.508724659037576
522240	1113767	14652366	롯데월드 실내카페	테마파크시설	127.10061657951574	37.50899131751034
522182	1113862	14652372	롯데월드매직아일랜드 회전그네	테마파크시설	127.10035463889587	37.509333921998085
521924	1113726	14653181	롯데월드매직아일랜드 아트란티스	테마파크시설	127.09918676191268	37.50884476204633
522259	1113804	17575261	롯데월드 혜성특급	테마파크시설	127.10070271694254	37.50912459275526
522123	1113857	17560374	롯데월드 번지드롭	테마파크시설	127.10008769050883	37.50931612840394
522099	1113763	14652969	롯데월드 매직아일랜드 매직캐슬	테마파크시설	127.09997865930511	37.50897744309531
522233	1113912	14652371	롯데월드 매직아일랜드 어린이왕국	테마파크시설	127.10058561189308	37.509513926406434
522120	1113688	14652367	롯데월드매직아일랜드 한타지드링	테마파크시설	127.10007330496809	37.50870706162533
522254	1113847	24202153	롯데월드매직아일랜드 자이로스핀	테마파크시설	127.10068030444435	37.509279584609516
521686	1114374	13328096	롯데월드 자연생태체험관	테마파크시설	127.0981130800382	37.511181061742114
522185	1113621	14652352	롯데월드매직아일랜드 월드모노레일	테마파크시설	127.10036704837952	37.50846534320921
522302	1113743	8162363	롯데월드 호반무대	테마파크시설	127.1008969585558	37.50890458193016
521831	1114525	265338099	롯데월드 그럴싸진관	테마파크시설	127.09876981380992	37.51172472085224
522182	1113630	17558626	롯데월드 월드모노레일	테마파크시설	127.10035351953597	37.50849779086445
522331	1113906	14652971	롯데월드 제네바유람선	테마파크시설	127.10102894963431	37.50949192395223
522112	1113730	17558249	롯데월드 캐슬뮤직쇼	테마파크시설	127.10003731414349	37.50885846085432
522180	1113863	17562712	롯데월드 회전그네	테마파크시설	127.10034559543816	37.50933753369825
522232	1113913	17558326	롯데월드 어린이왕국	테마파크시설	127.100581092577	37.50951753427195
527055	1117310	17557374	올림픽공원 가족놀이동산	공원시설물	127.12242106481013	37.521739750005814
617850	1114736	23580186	쉬자파크	테마파크	127.53318298866903	37.511323073812335
777010	1110908	1649579194	웰리힐리파크 워터플래닛	워터테마파크	128.25291988064768	37.492085766831245
776285	1110623	12273692	웰리힐리파크 에이프런광장	테마파크시설	128.2496243002575	37.491093592407616
422100	1120830	469969511	쥬라리움 청라점	테마파크	126.64745357931577	37.533963075439544
444550	1120851	27533041	계양워터파크&피크닉장	워터테마파크	126.74905260095484	37.534298358011014
466577	1127002	1068712068	KBS스포츠월드 워터플레이	워터테마파크	126.84869391485805	37.55663621984507
482717	1126122	530818465	아이스뮤지엄	테마파크	126.92176299826558	37.55353573589746
497361	1125429	1792487174	라이언치즈볼 어드벤처	테마파크	126.98805412000674	37.551063484997975
518511	1125551	7996800	서울어린이대공원 놀이동산	테마파크	127.08379362541518	37.55147404421246
517725	1125135	1512054004	서울어린이대공원	테마파크	127.0802340403481	37.54997725572988
517515	1124945	17558625	어린이대공원 꿈마루	테마파크시설	127.07928272922902	37.54929313959599
517993	1125673	17560141	서울어린이대공원 환경공원	테마파크시설	127.08144927880568	37.55191537162994
517280	1125018	7905211	어린이대공원 음악분수	테마파크시설	127.07821926305651	37.54955694037562
518172	1125325	17559106	어린이대공원 맨발공원	테마파크시설	127.08225818259115	37.55066062160314
517677	1124821	11008180	어린이대공원 능동숲속의무대	테마파크시설	127.08001555386232	37.54884575007331
518301	1124397	17558244	어린이대공원 바다동물관	테마파크시설	127.08283841778253	37.54731570994022
518218	1125109	17552259	어린이대공원 팔각당	테마파크시설	127.08246555036172	37.54988201451906
517967	1124020	17560282	서울어린이대공원 잔디물썰매장	테마파크시설	127.08132511144008	37.54595805575823
517357	1124625	17557965	어린이대공원 생태연못	테마파크시설	127.07856632260285	37.548140340422606
518020	1124838	17560085	어린이대공원 꼬마동물마을	테마파크시설	127.08156822060032	37.548905955606884
518091	1124290	17560274	어린이대공원 동물공연장	테마파크시설	127.08188744398575	37.54693074581968
517901	1125166	19195676	어린이대공원 캐릭터월드	테마파크시설	127.08103084272052	37.5500884353974
518370	1124818	17562698	어린이대공원 맹수마을	테마파크시설	127.08315242742846	37.548832770752234
517725	1124530	17556364	어린이대공원 물놀이장	테마파크시설	127.08023170322983	37.54779684114289
518051	1124960	17562625	서울어린이대공원 열대동물관	테마파크시설	127.08170902311802	37.549345545464604
517167	1125085	17560005	어린이대공원 희망마루	테마파크시설	127.07770801088938	37.54979874548668
518197	1124955	17556776	어린이 대공원 물새장	테마파크시설	127.08236988114139	37.54932706634419
517192	1124628	17560087	어린이대공원 전래동화마을	테마파크시설	127.07781946328792	37.548151646975846
517905	1125189	1246822817	서울어린이대공원 맘껏놀이터	테마파크시설	127.08104903890018	37.55017131474559
517175	1124848	17558804	어린이대공원 열린무대	테마파크시설	127.07774333645273	37.548944575788866
517612	1125357	1082107332	구미산업개발 어린이대공원 놀이동산	테마파크	127.07972338683301	37.55077768801037
517442	1124903	17556365	어린이대공원 교양관	테마파크시설	127.07895213085011	37.54914199338209
518345	1124590	17560083	어린이대공원 들새마을	테마파크시설	127.08303835263793	37.548011140420854
517450	1124778	17556778	어린이대공원 나무뿌리원	테마파크시설	127.07898786785495	37.54869147027064
518247	1124563	17556361	어린이대공원 초식동물마을	테마파크시설	127.08259465024184	37.54791414377123
518220	1124510	17562781	어린이대공원 사슴마을	테마파크시설	127.08247222499693	37.547723217644574
518182	1124765	17558237	어린이대공원 원숭이마을	테마파크시설	127.08230122985039	37.54864235543587
517985	1124920	17556363	어린이대공원 민속전시실	테마파크시설	127.08141011332121	37.54920159219102
518078	1124691	17556775	어린이대공원 동물타기장	테마파크시설	127.08183018041429	37.54837598726962
513940	1122186	23286502	꼬마놀이동산	놀이교육	127.06309190085125	37.53935947347713
549373	1124035	1211891466	아쿠아필드 하남(휴업중)	워터테마파크	127.22347946179778	37.54582864526763
388021	1139607	724953353	누리워터파크	워터테마파크	126.49277072937427	37.60107130371996
497162	1131210	27215154	다이나믹메이즈 서울인사동점	테마파크	126.98714973498465	37.57189803810801
503391	1131241	26597070	테지움 서울	테마파크	127.01535423310278	37.57200946238991
523259	1137463	10256782	다해인터내셔날	테마파크시설	127.10534679161063	37.59438737142844
550897	1130407	27488064	재미터테마파크	테마파크	127.2304482792548	37.568779823191534
574456	1138170	24254788	코코몽팜빌리지	테마파크	127.33724201290092	37.59650058384455
793659	1135750	27192536	휘닉스평창 블루캐니언	워터테마파크	128.3297942394404	37.580769699678356
793696	1135708	17581731	휘닉스평창 블루캐니언실내존	워터테마파크	128.32995905518803	37.58061648614786
793980	1135610	17577105	휘닉스평창 블루캐니언실외존	워터테마파크	128.33123850139248	37.58024889678632
389788	1144585	1534050942	강화루지	테마파크	126.50065446638662	37.619045246305944
386860	1146165	17579737	강화로얄워터파크 로얄호텔 바디슬라이드	워터테마파크	126.48734974455935	37.62468237681023
386898	1146077	17583262	강화로얄워터파크로얄호텔 야외유수풀	워터테마파크	126.487524097833	37.62436599000491
386865	1146102	17576555	로얄워터파크 야외유아풀	워터테마파크	126.48737395847137	37.624455435606365
431714	1146530	27273616	피싱파크진산각	테마파크	126.69057927636224	37.62670575994963
466417	1147614	27332525	배다골테마파크	테마파크	126.84781839976803	37.630919997232326
519538	1142522	1535542089	봉화산옹기테마공원	테마파크	127.08851491815972	37.61263362826504
960930	1142558	12463811	해변랜드	테마파크	129.08756580676948	37.59432986772689
387041	1159509	2058159326	옥토끼우주센터 보트장	테마파크시설	126.48783971812495	37.67277490014548
445805	1157030	12937327	원마운트	테마파크	126.75430385452177	37.66469689008829
445807	1156983	19585517	원마운트 워터파크	워터테마파크	126.75431347985432	37.66452752611969
444955	1155565	2027143184	K컬처밸리 (2024년예정)	테마파크	126.75046803746339	37.659409100044535
445754	1157096	1853970625	더어드벤처 아이스엔초비	테마파크	126.75407186028302	37.66493426502055
443105	1157037	69457438	VR쥬라기테마파크	테마파크	126.74206327322196	37.66469598555214
477213	1152320	1227629811	아쿠아필드 고양(휴업중)	워터테마파크	126.89671698353703	37.64793306342577
475467	1158724	782990251	삼송공룡테마파크	테마파크	126.88876875153129	37.67100537387036
470009	1159543	383815139	오즈키즈워터파크	워터테마파크	126.86401715722425	37.67393104228371
476811	1152065	360783047	슈팅몬스터	테마파크	126.89489619978285	37.64701245247926
475487	1158864	513354770	지구촌종합레저타운	테마파크	126.88885867778262	37.67151000715271
512423	1151309	25491834	중랑천워터파크	워터테마파크	127.0563050384311	37.644321260273614
598700	1158053	23181577	에델바이스 스위스 테마파크	테마파크	127.44747988057638	37.66779076684892
599163	1157932	1596757006	에델바이스 스위스 테마파크 스위스테마관	테마파크시설	127.449576311477	37.66734672360595
598960	1157990	1596196958	에델바이스 스위스 테마파크 러브프로포즈	테마파크시설	127.44865725245357	37.667559248932854
599175	1158003	1596706693	에델바이스 스위스 테마파크 커피박물관	테마파크시설	127.44963225808266	37.667602386793455
598918	1157995	1596298630	에델바이스 스위스 테마파크 스위스스토리	테마파크시설	127.44846694985378	37.66757799212067
599097	1157991	1596966326	에델바이스 스위스 테마파크 러브클레인디자인	테마파크시설	127.44927837675678	37.66756048855893
651548	1153423	7813421	비발디파크 오션월드	워터테마파크	127.6869120393257	37.649953497315735
650299	1152915	138842481	소노벨비발디파크 앤트월드	테마파크시설	127.68123442220259	37.64815565653749
651332	1152938	17577004	비발디파크 오션월드 실내존	워터테마파크	127.68591697921737	37.64821141184278
650400	1152924	1600463562	비발디파크 K1스피드	테마파크시설	127.68169247426871	37.648185445316514
651548	1153429	17579164	비발디파크오션월드 몬스터블라스터	테마파크시설	127.68691223848364	37.64997511935393
651445	1153238	17582837	비발디파크오션월드 자이언트워터플렉스	테마파크시설	127.68643907205191	37.64928953513378
650701	1151982	7903040	비발디파크 놀이시설	테마파크시설	127.68302558919595	37.64478288941099
651220	1153068	18151184	비발디파크 오션월드 키즈풀	테마파크시설	127.68541367450095	37.64868283999909
651582	1153798	17579161	비발디파크 웨이브카바나	테마파크시설	127.68707858938795	37.65130397708245
651617	1153120	17576410	비발디파크 벨리카바나	워터테마파크	127.68721470885724	37.64885976290421
651455	1153635	17582834	비발디파크 익스트림리버	테마파크시설	127.68649756459061	37.65071992970284
651302	1153140	17579162	비발디파크 로얄썬베드	워터테마파크	127.68578770586353	37.648940144637336
651312	1152978	17581683	오션월드 메가슬라이드존	테마파크시설	127.68582766009632	37.64835608585428
651675	1153278	17581888	비발디파크 슈퍼부메랑고	테마파크시설	127.68748282925486	37.6494276115999
651370	1153793	17581887	비발디파크 비치카바나	테마파크시설	127.68611755044833	37.65129155139649
704870	1160298	1474088353	목재문화체험장 (2025년예정)	테마파크	127.92888462476355	37.67307245904534
870113	1158171	26325147	알펜시아리조트 오션700	워터테마파크	128.67769821694836	37.65713220983434
868450	1156637	2136932091	알펜시아리조트 알파인코스터	테마파크시설	128.67003908656358	37.65171309495778
872032	1155294	17363165	용평리조트 피크아일랜드	워터테마파크	128.6861590542021	37.64664417878733
872004	1155195	731381498	용평워터파크	워터테마파크	128.68602413653582	37.64628935764013
871048	1159675	1251918091	알펜시아스키점프센터 모노레일카탑승장	테마파크시설	128.68205710839771	37.662489826400915
870859	1155191	700465257	컬러랜드	테마파크	128.6808364089181	37.64634899073507
868922	1158034	1876862935	알펜시아리조트 드림랜드700 테마파크	테마파크	128.67229053161282	37.656715332809114
472370	1163846	20056454	통일워터파크	워터테마파크	126.87469611190076	37.68945050032025
468085	1164007	17577198	쥬라리움 일산점 앵무새마을	테마파크시설	126.85526227724276	37.69000847860725
468042	1163957	17575376	쥬라리움 일산점 물고기마을	테마파크시설	126.85506761919058	37.68982804427018
468072	1164049	17580548	쥬라리움 일산점 원숭이장기자랑	테마파크시설	126.85520302681236	37.69015976989064
470255	1161925	980037663	패밀리워터파크	워터테마파크	126.86511700758334	37.68251682562967
467928	1164070	17576585	쥬라리움 일산점 물범마을	테마파크시설	126.85454982516941	37.69023464806
511618	1168964	1485348285	아일랜드캐슬 워터파크	워터테마파크	127.05270150581227	37.7079500672289
535975	1165540	17576227	밤섬유원지 밤섬랜드	테마파크시설	127.16316227006735	37.695509209127245
691609	1164223	151896785	홍천무궁화테마파크	테마파크	127.86893051830357	37.68767437455356
432370	1172326	1193650914	롯데프리미엄아울렛 파주라기파크	테마파크	126.69316917686423	37.71967886358387
454740	1175704	560886206	퍼스트가든	테마파크	126.79462536146097	37.73207316195957
463889	1180757	1914510782	하니랜드	테마파크	126.83610011948687	37.75034849314765
463273	1180681	17580539	하니랜드 워터파크	워터테마파크	126.83330485626401	37.75007067903745
463174	1180630	17582060	하니랜드 잔디썰매장	테마파크시설	126.83285593390372	37.74988624602943
463826	1180857	17583225	하니랜드 인공폭포	테마파크시설	126.8358133811534	37.75070848080134
464051	1180582	18131225	하니랜드 이벤트장	테마파크시설	126.83683678386936	37.749718838388944
489058	1173636	18191663	두리랜드	테마파크	126.95035372646545	37.72478877520336
488975	1173643	17577403	두리랜드 바이킹	테마파크시설	126.94997712027693	37.72481384321173
543278	1171615	26870156	어린이비전센터 라바파크 (휴업중)	테마파크	127.19634213528481	37.71735228057022
645888	1177381	395591143	강아지숲	테마파크	127.66202609297865	37.73643669836771
771248	1171746	25461973	모둘자리 힐링체험마을 짚라인	테마파크시설	128.23046943267764	37.711566568977766
943025	1173125	8143646	하슬라아트월드	테마파크	129.0094855188247	37.705829655290046
943095	1173222	17577351	하슬라아트월드 하늘전망대	테마파크시설	129.00981228535218	37.70617360714221
943212	1173255	17570356	하슬라아트월드 바다정원	테마파크시설	129.01034589165425	37.70628341681363
943088	1173447	17578075	하슬라아트월드 소나무정원	테마파크시설	129.00980244438054	37.70698452518323
430143	1189835	13322607	통일동산 ATV체험장	테마파크시설	126.6827963834457	37.78275133862116
530852	1187757	17569799	아프리카예술박물관 범퍼카	테마파크시설	127.14007807639639	37.77560623708301
607170	1190245	1313115375	꿈의동산놀이공원 (휴업중)	테마파크	127.48663790932187	37.78365095504963
607274	1190604	26417384	꿈의동산놀이공원 안보교육장	테마파크시설	127.4871186285583	37.784942739162155
606833	1190253	26417379	꿈의동산놀이공원 꿈의성	놀이시설	127.48510789745355	37.78368609477593
606645	1190518	22959672	알곡종합운동장	종합운동장	127.48426048520726	37.78464459241384
620109	1186528	1602104105	포시즌워터파크캠프2	워터테마파크	127.54529065298529	37.769998737779034
912527	1188069	1253585055	무지개놀이동산	서비스,산업	128.8725777116785	37.76193339714756
430573	1191981	698609093	쥬라리움 파주점	테마파크	126.68471602659372	37.79049032117043
433146	1192076	11481502	사파리체험테마파크	테마파크	126.69639905689627	37.79086336930786
433141	1192332	551634017	아지동테마파크	테마파크	126.69637257570211	37.791785882405925
455995	1192208	10888175	금강산랜드	워터테마파크	126.80016014022065	37.791560757534036
528338	1201149	1737412191	페리아도워터파크	워터테마파크	127.12874747086752	37.82388176832515
521773	1196851	377638405	양주유수풀파크	워터테마파크	127.09890021785031	37.80842135195567
614361	1192374	24874932	아토믹워터파크	워터테마파크	127.51934332539996	37.79118385310574
639666	1199114	24244483	강촌테마랜드	테마파크	127.63446183597553	37.81490967064089
923013	1196430	1311115333	런닝맨 강릉점	테마파크	128.9209317596862	37.791282457092926
927743	1192185	1503519217	브릭캠퍼스 강릉	테마파크	128.94199949627705	37.775640823765514
505114	1206871	10229479	그린아일랜드	테마파크	127.02324082849078	37.84457089514906
499674	1205885	916871397	양주농촌테마공원	테마파크	126.99851854773722	37.84101981797718
613537	1202850	27092396	가평레일파크	테마파크	127.51586405198422	37.828952525384786
614984	1203126	26821672	자라섬워터파크	워터테마파크	127.52244537060264	37.829918160584775
622267	1206601	1995027430	현무리조트	테마파크	127.5556292005283	37.84228941018791
673023	1210093	15867944	춘천커피테마파크	테마파크	127.78640096420223	37.853558694043414
694518	1201900	1308332525	알파카월드	테마파크	127.88373474112795	37.82334321180986
910542	1210933	1423406480	호린파크	테마파크	128.8656427902723	37.84443062902918
443268	1219674	12678193	평화랜드	테마파크	126.7420189704711	37.890429946744035
653160	1217895	27204421	레고랜드코리아리조트 (2022년5월5일예정)	테마파크	127.69639340719131	37.882241736051604
531257	1229649	25450123	어메이징파크	테마파크시설	127.14220657540656	37.92657435564681
552149	1228748	11520510	포천아트밸리	테마파크	127.23724560487295	37.923174149309475
568350	1223797	20496856	운악레저타운	테마파크	127.31087413077078	37.90516048180391
627390	1227736	24949292	별비치	워터테마파크	127.57950551548988	37.91833950385327
627909	1229249	21159173	캠핑파파 놀이동산	관광지부속시설	127.58190932882427	37.92378007173984
658335	1228042	8037747	육림랜드	테마파크	127.72027788087449	37.91866485314346
496666	1245682	12721502	산들애테마	테마파크	126.98481975482947	37.984438145498736
500983	1273018	2066314940	허브빌리지	테마파크	127.00448175771315	38.08294970863406
571056	1269294	15430606	산정랜드	테마파크	127.32390157026398	38.06908342899109
756328	1268294	25626933	인제나르샤파크	테마파크	128.1682845296932	38.060119782460404
756468	1268501	1843516818	인제나르샤파크 스카이점프	테마파크시설	128.168934361145	38.060859245472344
504496	1279012	18583850	두루미테마파크	테마파크	127.02050448961975	38.10454834531562
865551	1277703	13330982	쏠비치양양 오션플레이	워터테마파크	128.66670213125886	38.088011770278975
509749	1286020	109712998	연천로하스파크	테마파크	127.04447666846356	38.12979606591611
857755	1285255	1906057517	낙산랜드	테마파크	128.6317753481497	38.11571420861202
853207	1303274	1544266531	롯데리조트속초 워터파크	워터테마파크	128.61246743723962	38.18090844764952
686363	1309297	27392358	국제평화아트파크	테마파크	127.85115284618313	38.21060013178227
834477	1310496	10482115	설악워터피아	워터테마파크	128.52753317605737	38.20806729509495
827309	1311470	18060210	소노문델피노 오션플레이	워터테마파크	128.49487959986627	38.211997329679804
832267	1309757	1618971940	다이나믹메이즈 강원도속초점	테마파크	128.5173882620606	38.20553605437266
834675	1310542	17573777	설악워터피아 스파밸리	테마파크시설	128.528440597214	38.20822123320478
833565	1310380	17577128	설악 씨네라마 당나라황궁	테마파크시설	128.5233607856605	38.207703540599944
834734	1310219	17577132	설악워터피아 아쿠아수영장	테마파크시설	128.52868561739416	38.20705418090218
834892	1310275	17577424	한화리조트설악 샤크웨이브	워터테마파크	128.52941116699046	38.20724651304378
835169	1310855	585045810	한화리조트 설악쏘라노 튜브스터	테마파크시설	128.53071954168524	38.20931936240052
833954	1310734	17580309	설악씨네라마 고구려저잣거리	테마파크시설	128.52516334774634	38.208955695283514
834110	1310152	17583196	설악씨네라마 공성전투장	테마파크시설	128.52583178702534	38.206849894498774
833955	1310505	17581522	설악씨네라마 고구려관아	테마파크시설	128.52515069557356	38.20813070700372
834032	1310305	17576133	설악씨네라마 고구려민가	테마파크시설	128.5254871943166	38.20740567660015
833647	1310657	17579823	설악씨네라마 당나라저잣거리	테마파크시설	128.523755956924	38.208696521755364
834630	1310379	17581793	한화리조트설악 레인보우스트림	테마파크시설	128.52822287267148	38.207636732628956
833772	1310345	17575251	설악씨네라마 당나라사합원	테마파크시설	128.5243031968972	38.207565190399556
833617	1310532	17582934	설악씨네라마 고구려부흥운동지	테마파크시설	128.52360960380176	38.2082480107218
833445	1310417	17577127	설악 씨네라마 측천무후후원	테마파크시설	128.5228157129694	38.20784393537488
745392	1326393	92514913	해안야생화공원	테마파크	128.12165285668374	38.26993098828783
