x,y,ID,NAME,CATE,lat,long
524810,972675,1182438593,CGV 평택소사,CJCGV,127.11149165117509,37.000461655085076
525035,971313,1934227682,롯데시네마 평택비전,롯데시네마,127.1124955268728,36.99555161199282
532458,971095,469144917,메가박스 안성스타필드,메가박스,127.145849413446,36.99472957295127
544358,974830,20496817,롯데시네마 안성,롯데시네마,127.19935672956304,37.0081139159194
557223,976016,1448156706,CGV 안성,CJCGV,127.2571894163915,37.012277402816395
706527,968271,1576715873,CGV 충주교현,CJCGV,127.92784756925727,36.98101459077015
709468,970098,1359690594,씨네Q 충주연수,영화관,127.94113986531329,36.98749483380503
513541,991206,7857148,롯데시네마 송탄,롯데시네마,127.06090415502639,37.06728983009476
480554,1004491,87365968,롯데시네마 향남,롯데시네마,126.91248155736372,37.1151559449963
